[
  {
    "ID": "000025345",
    "Name": "Кафе «У Руслана»",
    "global_id": 637539332,
    "IsNetObject": "нет",
    "OperatingCompany": "",
    "TypeObject": "кафе",
    "AdmArea": "Юго-Восточный административный округ",
    "District": "район Марьино",
    "Address": "город Москва, Люблинская улица, владение 155, строение 1",
    "PublicPhone": [
      {
        "PublicPhone": "(495) 349-56-82"
      }
    ],
    "SeatsCount": 20,
    "SocialPrivileges": "нет",
    "Longitude_WGS84": "37.7416488157342000",
    "Latitude_WGS84": "55.6566095783472000",
    "geoData": {
      "coordinates": [
        37.7416488157342,
        55.6566095783472
      ],
      "type": "Point"
    },
    "geodata_center": {
      "coordinates": [
        37.7416488157342,
        55.6566095783472
      ],
      "type": "Point"
    }
  },
  {
    "ID": "000059301",
    "Name": "Ресторан «Чайхона №1»",
    "global_id": 637539339,
    "IsNetObject": "да",
    "OperatingCompany": "Чайхона №1",
    "TypeObject": "ресторан",
    "AdmArea": "Юго-Восточный административный округ",
    "District": "район Марьино",
    "Address": "город Москва, Люблинская улица, дом 96",
    "PublicPhone": [
      {
        "PublicPhone": "(495) 345-98-44"
      }
    ],
    "SeatsCount": 99,
    "SocialPrivileges": "нет",
    "Longitude_WGS84": "37.7396049724647000",
    "Latitude_WGS84": "55.6571845795704000",
    "geoData": {
      "coordinates": [
        37.7396049724647,
        55.6571845795704
      ],
      "type": "Point"
    },
    "geodata_center": {
      "coordinates": [
        37.7396049724647,
        55.6571845795704
      ],
      "type": "Point"
    }
  },
  {
    "ID": "000027288",
    "Name": "Корчма «Вечера на хуторе»",
    "global_id": 637539353,
    "IsNetObject": "нет",
    "OperatingCompany": "",
    "TypeObject": "ресторан",
    "AdmArea": "Юго-Восточный административный округ",
    "District": "Рязанский район",
    "Address": "город Москва, Рязанский проспект, дом 65, корпус 2",
    "PublicPhone": [
      {
        "PublicPhone": "(499) 171-49-48"
      }
    ],
    "SeatsCount": 98,
    "SocialPrivileges": "нет",
    "Longitude_WGS84": "37.7819036506064000",
    "Latitude_WGS84": "55.7195200286505000",
    "geoData": {
      "coordinates": [
        37.7819036506064,
        55.7195200286505
      ],
      "type": "Point"
    },
    "geodata_center": {
      "coordinates": [
        37.7819036506064,
        55.7195200286505
      ],
      "type": "Point"
    }
  },
  {
    "ID": "000026579",
    "Name": "Царица Востока",
    "global_id": 637539356,
    "IsNetObject": "нет",
    "OperatingCompany": "",
    "TypeObject": "ресторан",
    "AdmArea": "Юго-Восточный административный округ",
    "District": "Рязанский район",
    "Address": "город Москва, Рязанский проспект, дом 24, корпус 1",
    "PublicPhone": [
      {
        "PublicPhone": "(499) 703-01-64"
      }
    ],
    "SeatsCount": 168,
    "SocialPrivileges": "нет",
    "Longitude_WGS84": "37.7737940000000000",
    "Latitude_WGS84": "55.7209100000000000",
    "geoData": {
      "coordinates": [
        37.773794,
        55.72091
      ],
      "type": "Point"
    },
    "geodata_center": {
      "coordinates": [
        37.773794,
        55.72091
      ],
      "type": "Point"
    }
  },
  {
    "ID": "00148778",
    "Name": "KFC",
    "global_id": 637539361,
    "IsNetObject": "да",
    "OperatingCompany": "KFC",
    "TypeObject": "предприятие быстрого обслуживания",
    "AdmArea": "Юго-Восточный административный округ",
    "District": "район Текстильщики",
    "Address": "город Москва, Люблинская улица, дом 4, корпус 1А",
    "PublicPhone": [
      {
        "PublicPhone": "(495) 212-00-00"
      }
    ],
    "SeatsCount": 25,
    "SocialPrivileges": "нет",
    "Longitude_WGS84": "37.7298770000000020",
    "Latitude_WGS84": "55.7084167436265570",
    "geoData": {
      "coordinates": [
        37.729877,
        55.7084167436266
      ],
      "type": "Point"
    },
    "geodata_center": {
      "coordinates": [
        37.729877,
        55.7084167436266
      ],
      "type": "Point"
    }
  },
  {
    "ID": "000020385",
    "Name": "Москвич",
    "global_id": 637539364,
    "IsNetObject": "нет",
    "OperatingCompany": "",
    "TypeObject": "ресторан",
    "AdmArea": "Юго-Восточный административный округ",
    "District": "район Текстильщики",
    "Address": "город Москва, 11-я улица Текстильщиков, дом 1",
    "PublicPhone": [
      {
        "PublicPhone": "(499) 179-89-14"
      }
    ],
    "SeatsCount": 80,
    "SocialPrivileges": "нет",
    "Longitude_WGS84": "37.7363863216469000",
    "Latitude_WGS84": "55.7051583255033000",
    "geoData": {
      "coordinates": [
        37.7363863216469,
        55.7051583255033
      ],
      "type": "Point"
    },
    "geodata_center": {
      "coordinates": [
        37.7363863216469,
        55.7051583255033
      ],
      "type": "Point"
    }
  },
  {
    "ID": "000078081",
    "Name": "Кафе Овца",
    "global_id": 637539370,
    "IsNetObject": "нет",
    "OperatingCompany": "",
    "TypeObject": "кафе",
    "AdmArea": "Юго-Восточный административный округ",
    "District": "район Лефортово",
    "Address": "город Москва, улица Золоторожский Вал, дом 11, строение 5",
    "PublicPhone": [
      {
        "PublicPhone": "(495) 707-19-92"
      }
    ],
    "SeatsCount": 50,
    "SocialPrivileges": "нет",
    "Longitude_WGS84": "37.6949837432924000",
    "Latitude_WGS84": "55.7552588576803000",
    "geoData": {
      "coordinates": [
        37.6949837432924,
        55.7552588576803
      ],
      "type": "Point"
    },
    "geodata_center": {
      "coordinates": [
        37.6949837432924,
        55.7552588576803
      ],
      "type": "Point"
    }
  },
  {
    "ID": "00102195",
    "Name": "Макдоналдс",
    "global_id": 637539391,
    "IsNetObject": "да",
    "OperatingCompany": "Макдоналдс",
    "TypeObject": "предприятие быстрого обслуживания",
    "AdmArea": "Юго-Восточный административный округ",
    "District": "район Марьино",
    "Address": "город Москва, улица Перерва, дом 43, корпус 1",
    "PublicPhone": [
      {
        "PublicPhone": "(495) 543-91-23"
      }
    ],
    "SeatsCount": 0,
    "SocialPrivileges": "нет",
    "Longitude_WGS84": "37.7496312864305350",
    "Latitude_WGS84": "55.6596470329860440",
    "geoData": {
      "coordinates": [
        37.7496312864305,
        55.659647032986
      ],
      "type": "Point"
    },
    "geodata_center": {
      "coordinates": [
        37.7496312864305,
        55.659647032986
      ],
      "type": "Point"
    }
  },
  {
    "ID": "00102232",
    "Name": "Бургер Кинг",
    "global_id": 637539400,
    "IsNetObject": "да",
    "OperatingCompany": "Бургер Кинг",
    "TypeObject": "предприятие быстрого обслуживания",
    "AdmArea": "Юго-Восточный административный округ",
    "District": "район Марьино",
    "Address": "город Москва, улица Перерва, дом 43, корпус 1",
    "PublicPhone": [
      {
        "PublicPhone": "(495) 544-50-00"
      }
    ],
    "SeatsCount": 0,
    "SocialPrivileges": "нет",
    "Longitude_WGS84": "37.7496312864305350",
    "Latitude_WGS84": "55.6596470329860440",
    "geoData": {
      "coordinates": [
        37.7496312864305,
        55.659647032986
      ],
      "type": "Point"
    },
    "geodata_center": {
      "coordinates": [
        37.7496312864305,
        55.659647032986
      ],
      "type": "Point"
    }
  },
  {
    "ID": "000052500",
    "Name": "Крошка картошка",
    "global_id": 637539406,
    "IsNetObject": "да",
    "OperatingCompany": "Крошка Картошка",
    "TypeObject": "предприятие быстрого обслуживания",
    "AdmArea": "Юго-Восточный административный округ",
    "District": "район Марьино",
    "Address": "город Москва, улица Перерва, дом 43, корпус 1",
    "PublicPhone": [
      {
        "PublicPhone": "(495) 445-55-66"
      }
    ],
    "SeatsCount": 1,
    "SocialPrivileges": "нет",
    "Longitude_WGS84": "37.7496312864305350",
    "Latitude_WGS84": "55.6596470329860440",
    "geoData": {
      "coordinates": [
        37.7496312864305,
        55.659647032986
      ],
      "type": "Point"
    },
    "geodata_center": {
      "coordinates": [
        37.7496312864305,
        55.659647032986
      ],
      "type": "Point"
    }
  },
  {
    "ID": "000052569",
    "Name": "KFC",
    "global_id": 637539409,
    "IsNetObject": "да",
    "OperatingCompany": "KFC",
    "TypeObject": "предприятие быстрого обслуживания",
    "AdmArea": "Юго-Восточный административный округ",
    "District": "район Марьино",
    "Address": "город Москва, улица Перерва, дом 43, корпус 1",
    "PublicPhone": [
      {
        "PublicPhone": "(495) 212-47-51"
      }
    ],
    "SeatsCount": 1,
    "SocialPrivileges": "нет",
    "Longitude_WGS84": "37.7489227399547000",
    "Latitude_WGS84": "55.6593432276962000",
    "geoData": {
      "coordinates": [
        37.7489227399547,
        55.6593432276962
      ],
      "type": "Point"
    },
    "geodata_center": {
      "coordinates": [
        37.7489227399547,
        55.6593432276962
      ],
      "type": "Point"
    }
  },
  {
    "ID": "000029806",
    "Name": "Кампанелло",
    "global_id": 637539411,
    "IsNetObject": "нет",
    "OperatingCompany": "",
    "TypeObject": "кафе",
    "AdmArea": "Юго-Восточный административный округ",
    "District": "район Кузьминки",
    "Address": "город Москва, Зеленодольская улица, дом 43А",
    "PublicPhone": [
      {
        "PublicPhone": "(499) 172-89-09"
      }
    ],
    "SeatsCount": 30,
    "SocialPrivileges": "нет",
    "Longitude_WGS84": "37.7663780000000000",
    "Latitude_WGS84": "55.7025750000000000",
    "geoData": {
      "coordinates": [
        37.766378,
        55.702575
      ],
      "type": "Point"
    },
    "geodata_center": {
      "coordinates": [
        37.766378,
        55.702575
      ],
      "type": "Point"
    }
  },
  {
    "ID": "000028325",
    "Name": "СТОЛОВАЯ",
    "global_id": 637539425,
    "IsNetObject": "нет",
    "OperatingCompany": "",
    "TypeObject": "столовая",
    "AdmArea": "Юго-Восточный административный округ",
    "District": "район Выхино-Жулебино",
    "Address": "город Москва, Рязанский проспект, дом 103А",
    "PublicPhone": [
      {
        "PublicPhone": "(495) 376-15-50"
      }
    ],
    "SeatsCount": 44,
    "SocialPrivileges": "нет",
    "Longitude_WGS84": "37.8205791464873760",
    "Latitude_WGS84": "55.7121674481274100",
    "geoData": {
      "coordinates": [
        37.8205791464874,
        55.7121674481274
      ],
      "type": "Point"
    },
    "geodata_center": {
      "coordinates": [
        37.8205791464874,
        55.7121674481274
      ],
      "type": "Point"
    }
  },
  {
    "ID": "000028079",
    "Name": "Столовая",
    "global_id": 637539426,
    "IsNetObject": "нет",
    "OperatingCompany": "",
    "TypeObject": "столовая",
    "AdmArea": "Юго-Восточный административный округ",
    "District": "район Печатники",
    "Address": "город Москва, Угрешская улица, владение 31, строение 1",
    "PublicPhone": [
      {
        "PublicPhone": "нет телефона"
      }
    ],
    "SeatsCount": 10,
    "SocialPrivileges": "нет",
    "Longitude_WGS84": "37.6955865866079950",
    "Latitude_WGS84": "55.7170258464528770",
    "geoData": {
      "coordinates": [
        37.695586586608,
        55.7170258464529
      ],
      "type": "Point"
    },
    "geodata_center": {
      "coordinates": [
        37.695586586608,
        55.7170258464529
      ],
      "type": "Point"
    }
  },
  {
    "ID": "000028327",
    "Name": "Саят Нова",
    "global_id": 637539430,
    "IsNetObject": "нет",
    "OperatingCompany": "",
    "TypeObject": "ресторан",
    "AdmArea": "Юго-Восточный административный округ",
    "District": "район Капотня",
    "Address": "город Москва, улица Капотня, дом 34",
    "PublicPhone": [
      {
        "PublicPhone": "(495) 358-10-85"
      }
    ],
    "SeatsCount": 200,
    "SocialPrivileges": "нет",
    "Longitude_WGS84": "37.8083691410000140",
    "Latitude_WGS84": "55.6397973210000000",
    "geoData": {
      "coordinates": [
        37.808369141,
        55.639797321
      ],
      "type": "Point"
    },
    "geodata_center": {
      "coordinates": [
        37.808369141,
        55.639797321
      ],
      "type": "Point"
    }
  },
  {
    "ID": "000026570",
    "Name": "Якитория",
    "global_id": 637539431,
    "IsNetObject": "да",
    "OperatingCompany": "Якитория",
    "TypeObject": "ресторан",
    "AdmArea": "Юго-Восточный административный округ",
    "District": "район Выхино-Жулебино",
    "Address": "город Москва, улица Маршала Полубоярова, дом 1",
    "PublicPhone": [
      {
        "PublicPhone": "(499) 742-15-60"
      }
    ],
    "SeatsCount": 184,
    "SocialPrivileges": "нет",
    "Longitude_WGS84": "37.8603476824146700",
    "Latitude_WGS84": "55.6908045239774980",
    "geoData": {
      "coordinates": [
        37.8603476824147,
        55.6908045239775
      ],
      "type": "Point"
    },
    "geodata_center": {
      "coordinates": [
        37.8603476824147,
        55.6908045239775
      ],
      "type": "Point"
    }
  },
  {
    "ID": "000024537",
    "Name": "KFC",
    "global_id": 637539436,
    "IsNetObject": "да",
    "OperatingCompany": "KFC",
    "TypeObject": "предприятие быстрого обслуживания",
    "AdmArea": "Юго-Восточный административный округ",
    "District": "Нижегородский район",
    "Address": "город Москва, Нижегородская улица, дом 50",
    "PublicPhone": [
      {
        "PublicPhone": "(495) 223-56-08"
      }
    ],
    "SeatsCount": 40,
    "SocialPrivileges": "нет",
    "Longitude_WGS84": "37.7010770000000000",
    "Latitude_WGS84": "55.7358860000000000",
    "geoData": {
      "coordinates": [
        37.701077,
        55.735886
      ],
      "type": "Point"
    },
    "geodata_center": {
      "coordinates": [
        37.701077,
        55.735886
      ],
      "type": "Point"
    }
  },
  {
    "ID": "00092552",
    "Name": "Бургер Кинг",
    "global_id": 637539461,
    "IsNetObject": "да",
    "OperatingCompany": "Бургер Кинг",
    "TypeObject": "предприятие быстрого обслуживания",
    "AdmArea": "Юго-Восточный административный округ",
    "District": "район Марьино",
    "Address": "город Москва, Люблинская улица, дом 153",
    "PublicPhone": [
      {
        "PublicPhone": "(495) 654-28-64"
      }
    ],
    "SeatsCount": 25,
    "SocialPrivileges": "нет",
    "Longitude_WGS84": "37.7418460315783340",
    "Latitude_WGS84": "55.6587566831421800",
    "geoData": {
      "coordinates": [
        37.7418460315783,
        55.6587566831422
      ],
      "type": "Point"
    },
    "geodata_center": {
      "coordinates": [
        37.7418460315783,
        55.6587566831422
      ],
      "type": "Point"
    }
  },
  {
    "ID": "00156636",
    "Name": "Зар-пицца",
    "global_id": 637539470,
    "IsNetObject": "нет",
    "OperatingCompany": "",
    "TypeObject": "столовая",
    "AdmArea": "Юго-Восточный административный округ",
    "District": "район Печатники",
    "Address": "город Москва, Волгоградский проспект, дом 42, корпус 16",
    "PublicPhone": [
      {
        "PublicPhone": "(916) 321-68-81"
      }
    ],
    "SeatsCount": 49,
    "SocialPrivileges": "нет",
    "Longitude_WGS84": "37.7254495659689870",
    "Latitude_WGS84": "55.7054679358865310",
    "geoData": {
      "coordinates": [
        37.725449565969,
        55.7054679358865
      ],
      "type": "Point"
    },
    "geodata_center": {
      "coordinates": [
        37.725449565969,
        55.7054679358865
      ],
      "type": "Point"
    }
  },
  {
    "ID": "000023551",
    "Name": "Макдоналдс",
    "global_id": 637539472,
    "IsNetObject": "да",
    "OperatingCompany": "Макдоналдс",
    "TypeObject": "предприятие быстрого обслуживания",
    "AdmArea": "Юго-Восточный административный округ",
    "District": "Рязанский район",
    "Address": "город Москва, Рязанский проспект, дом 32, корпус 2",
    "PublicPhone": [
      {
        "PublicPhone": "(495) 919-47-46"
      }
    ],
    "SeatsCount": 116,
    "SocialPrivileges": "нет",
    "Longitude_WGS84": "37.7851120000000000",
    "Latitude_WGS84": "55.7180630000000000",
    "geoData": {
      "coordinates": [
        37.785112,
        55.718063
      ],
      "type": "Point"
    },
    "geodata_center": {
      "coordinates": [
        37.785112,
        55.718063
      ],
      "type": "Point"
    }
  },
  {
    "ID": "00143450",
    "Name": "Добрынинский",
    "global_id": 637539474,
    "IsNetObject": "нет",
    "OperatingCompany": "",
    "TypeObject": "буфет",
    "AdmArea": "Юго-Восточный административный округ",
    "District": "район Марьино",
    "Address": "город Москва, Люблинская улица, дом 112, строение 3",
    "PublicPhone": [
      {
        "PublicPhone": "нет телефона"
      }
    ],
    "SeatsCount": 0,
    "SocialPrivileges": "нет",
    "Longitude_WGS84": "37.7428549999999840",
    "Latitude_WGS84": "55.6500257267891530",
    "geoData": {
      "coordinates": [
        37.742855,
        55.6500257267892
      ],
      "type": "Point"
    },
    "geodata_center": {
      "coordinates": [
        37.742855,
        55.6500257267892
      ],
      "type": "Point"
    }
  },
  {
    "ID": "00127456",
    "Name": "Шоколадница",
    "global_id": 637539477,
    "IsNetObject": "да",
    "OperatingCompany": "Шоколадница",
    "TypeObject": "кафе",
    "AdmArea": "Юго-Восточный административный округ",
    "District": "Рязанский район",
    "Address": "город Москва, Рязанский проспект, дом 32, корпус 3",
    "PublicPhone": [
      {
        "PublicPhone": "(800) 100-33-60"
      }
    ],
    "SeatsCount": 32,
    "SocialPrivileges": "нет",
    "Longitude_WGS84": "37.7852040459549060",
    "Latitude_WGS84": "55.7177942623660560",
    "geoData": {
      "coordinates": [
        37.7852040459549,
        55.7177942623661
      ],
      "type": "Point"
    },
    "geodata_center": {
      "coordinates": [
        37.7852040459549,
        55.7177942623661
      ],
      "type": "Point"
    }
  },
  {
    "ID": "00157936",
    "Name": "KFC",
    "global_id": 637539485,
    "IsNetObject": "да",
    "OperatingCompany": "KFC",
    "TypeObject": "кафе",
    "AdmArea": "Юго-Восточный административный округ",
    "District": "район Выхино-Жулебино",
    "Address": "город Москва, Рязанский проспект, дом 99А",
    "PublicPhone": [
      {
        "PublicPhone": "нет телефона"
      }
    ],
    "SeatsCount": 35,
    "SocialPrivileges": "нет",
    "Longitude_WGS84": "37.8167850000000000",
    "Latitude_WGS84": "55.7125480000000000",
    "geoData": {
      "coordinates": [
        37.816785,
        55.712548
      ],
      "type": "Point"
    },
    "geodata_center": {
      "coordinates": [
        37.816785,
        55.712548
      ],
      "type": "Point"
    }
  },
  {
    "ID": "000029271",
    "Name": "ГУУ",
    "global_id": 637539488,
    "IsNetObject": "нет",
    "OperatingCompany": "",
    "TypeObject": "столовая",
    "AdmArea": "Юго-Восточный административный округ",
    "District": "район Выхино-Жулебино",
    "Address": "город Москва, Рязанский проспект, дом 99А",
    "PublicPhone": [
      {
        "PublicPhone": "(495) 371-75-79"
      }
    ],
    "SeatsCount": 160,
    "SocialPrivileges": "нет",
    "Longitude_WGS84": "37.8163581652465550",
    "Latitude_WGS84": "55.7125727706631080",
    "geoData": {
      "coordinates": [
        37.8163581652466,
        55.7125727706631
      ],
      "type": "Point"
    },
    "geodata_center": {
      "coordinates": [
        37.8163581652466,
        55.7125727706631
      ],
      "type": "Point"
    }
  },
  {
    "ID": "000026571",
    "Name": "А ЛЯ ФУРШЕТ",
    "global_id": 637539495,
    "IsNetObject": "нет",
    "OperatingCompany": "",
    "TypeObject": "ресторан",
    "AdmArea": "Юго-Восточный административный округ",
    "District": "район Выхино-Жулебино",
    "Address": "город Москва, Сормовский проезд, дом 11, строение 8",
    "PublicPhone": [
      {
        "PublicPhone": "(495) 780-00-56"
      }
    ],
    "SeatsCount": 60,
    "SocialPrivileges": "нет",
    "Longitude_WGS84": "37.8118960000000000",
    "Latitude_WGS84": "55.7092920000000000",
    "geoData": {
      "coordinates": [
        37.811896,
        55.709292
      ],
      "type": "Point"
    },
    "geodata_center": {
      "coordinates": [
        37.811896,
        55.709292
      ],
      "type": "Point"
    }
  },
  {
    "ID": "000023544",
    "Name": "ГАЛЕРЕЯ ПИТАНИЯ",
    "global_id": 637539498,
    "IsNetObject": "нет",
    "OperatingCompany": "",
    "TypeObject": "столовая",
    "AdmArea": "Юго-Восточный административный округ",
    "District": "Рязанский район",
    "Address": "город Москва, Рязанский проспект, дом 24, корпус 2",
    "PublicPhone": [
      {
        "PublicPhone": "(495) 371-32-68"
      }
    ],
    "SeatsCount": 46,
    "SocialPrivileges": "нет",
    "Longitude_WGS84": "37.7746129990000000",
    "Latitude_WGS84": "55.7207040000000000",
    "geoData": {
      "coordinates": [
        37.774612999,
        55.720704
      ],
      "type": "Point"
    },
    "geodata_center": {
      "coordinates": [
        37.774612999,
        55.720704
      ],
      "type": "Point"
    }
  },
  {
    "ID": "000052472",
    "Name": "Хаят",
    "global_id": 637539504,
    "IsNetObject": "нет",
    "OperatingCompany": "",
    "TypeObject": "ресторан",
    "AdmArea": "Юго-Восточный административный округ",
    "District": "район Люблино",
    "Address": "город Москва, Краснодарская улица, дом 66",
    "PublicPhone": [
      {
        "PublicPhone": "(499) 784-00-12"
      }
    ],
    "SeatsCount": 190,
    "SocialPrivileges": "нет",
    "Longitude_WGS84": "37.7737940000000000",
    "Latitude_WGS84": "55.6740700000000000",
    "geoData": {
      "coordinates": [
        37.773794,
        55.67407
      ],
      "type": "Point"
    },
    "geodata_center": {
      "coordinates": [
        37.773794,
        55.67407
      ],
      "type": "Point"
    }
  },
  {
    "ID": "000069777",
    "Name": "NЕБО Monkey",
    "global_id": 637539507,
    "IsNetObject": "нет",
    "OperatingCompany": "",
    "TypeObject": "ресторан",
    "AdmArea": "Юго-Восточный административный округ",
    "District": "район Выхино-Жулебино",
    "Address": "город Москва, Привольная улица, дом 63",
    "PublicPhone": [
      {
        "PublicPhone": "(495) 640-08-80"
      }
    ],
    "SeatsCount": 80,
    "SocialPrivileges": "нет",
    "Longitude_WGS84": "37.8472650000000000",
    "Latitude_WGS84": "55.6819790000000000",
    "geoData": {
      "coordinates": [
        37.847265,
        55.681979
      ],
      "type": "Point"
    },
    "geodata_center": {
      "coordinates": [
        37.847265,
        55.681979
      ],
      "type": "Point"
    }
  },
  {
    "ID": "000029281",
    "Name": "ГБОУ Школа Кузьминки",
    "global_id": 637539511,
    "IsNetObject": "нет",
    "OperatingCompany": "",
    "TypeObject": "столовая",
    "AdmArea": "Юго-Восточный административный округ",
    "District": "район Кузьминки",
    "Address": "город Москва, Есенинский бульвар, дом 14, корпус 2",
    "PublicPhone": [
      {
        "PublicPhone": "(495) 963-04-11"
      }
    ],
    "SeatsCount": 130,
    "SocialPrivileges": "нет",
    "Longitude_WGS84": "37.7747713987435110",
    "Latitude_WGS84": "55.7006177733523910",
    "geoData": {
      "coordinates": [
        37.7747713987435,
        55.7006177733524
      ],
      "type": "Point"
    },
    "geodata_center": {
      "coordinates": [
        37.7747713987435,
        55.7006177733524
      ],
      "type": "Point"
    }
  },
  {
    "ID": "000069782",
    "Name": "Сытый лось",
    "global_id": 637539515,
    "IsNetObject": "нет",
    "OperatingCompany": "",
    "TypeObject": "кафе",
    "AdmArea": "Юго-Восточный административный округ",
    "District": "район Текстильщики",
    "Address": "город Москва, Люблинская улица, дом 4А",
    "PublicPhone": [
      {
        "PublicPhone": "(495) 212-20-75"
      }
    ],
    "SeatsCount": 220,
    "SocialPrivileges": "нет",
    "Longitude_WGS84": "37.7306639273559480",
    "Latitude_WGS84": "55.7059361046956670",
    "geoData": {
      "coordinates": [
        37.7306639273559,
        55.7059361046957
      ],
      "type": "Point"
    },
    "geodata_center": {
      "coordinates": [
        37.7306639273559,
        55.7059361046957
      ],
      "type": "Point"
    }
  },
  {
    "ID": "000027815",
    "Name": "Столовая",
    "global_id": 637539519,
    "IsNetObject": "нет",
    "OperatingCompany": "",
    "TypeObject": "столовая",
    "AdmArea": "Юго-Восточный административный округ",
    "District": "район Капотня",
    "Address": "город Москва, 2-й квартал Капотня, дом 1, корпус 3",
    "PublicPhone": [
      {
        "PublicPhone": "(550) 493-35-56"
      }
    ],
    "SeatsCount": 45,
    "SocialPrivileges": "нет",
    "Longitude_WGS84": "37.7976537987568410",
    "Latitude_WGS84": "55.6438490164553910",
    "geoData": {
      "coordinates": [
        37.7976537987568,
        55.6438490164554
      ],
      "type": "Point"
    },
    "geodata_center": {
      "coordinates": [
        37.7976537987568,
        55.6438490164554
      ],
      "type": "Point"
    }
  },
  {
    "ID": "000029310",
    "Name": "Столовая в школе № 2129",
    "global_id": 637539522,
    "IsNetObject": "нет",
    "OperatingCompany": "",
    "TypeObject": "столовая",
    "AdmArea": "Юго-Восточный административный округ",
    "District": "Южнопортовый район",
    "Address": "город Москва, 5-я Кожуховская улица, дом 15",
    "PublicPhone": [
      {
        "PublicPhone": "(495) 679-19-60"
      }
    ],
    "SeatsCount": 200,
    "SocialPrivileges": "нет",
    "Longitude_WGS84": "37.6721532251941000",
    "Latitude_WGS84": "55.7053578159548000",
    "geoData": {
      "coordinates": [
        37.6721532251941,
        55.7053578159548
      ],
      "type": "Point"
    },
    "geodata_center": {
      "coordinates": [
        37.6721532251941,
        55.7053578159548
      ],
      "type": "Point"
    }
  },
  {
    "ID": "00112729",
    "Name": "Диал лидер",
    "global_id": 637539523,
    "IsNetObject": "нет",
    "OperatingCompany": "",
    "TypeObject": "кафе",
    "AdmArea": "Юго-Восточный административный округ",
    "District": "район Печатники",
    "Address": "город Москва, Шоссейная улица, дом 2Б",
    "PublicPhone": [
      {
        "PublicPhone": "(495) 502-19-83"
      }
    ],
    "SeatsCount": 20,
    "SocialPrivileges": "нет",
    "Longitude_WGS84": "37.7263978427209990",
    "Latitude_WGS84": "55.7007177083236940",
    "geoData": {
      "coordinates": [
        37.726397842721,
        55.7007177083237
      ],
      "type": "Point"
    },
    "geodata_center": {
      "coordinates": [
        37.726397842721,
        55.7007177083237
      ],
      "type": "Point"
    }
  },
  {
    "ID": "000023342",
    "Name": "Кафе фараон",
    "global_id": 637539545,
    "IsNetObject": "нет",
    "OperatingCompany": "",
    "TypeObject": "кафе",
    "AdmArea": "Юго-Восточный административный округ",
    "District": "район Кузьминки",
    "Address": "город Москва, Зеленодольская улица, дом 30, корпус 3",
    "PublicPhone": [
      {
        "PublicPhone": "(499) 722-63-51"
      }
    ],
    "SeatsCount": 80,
    "SocialPrivileges": "нет",
    "Longitude_WGS84": "37.7706249265410250",
    "Latitude_WGS84": "55.7108032362763690",
    "geoData": {
      "coordinates": [
        37.770624926541,
        55.7108032362764
      ],
      "type": "Point"
    },
    "geodata_center": {
      "coordinates": [
        37.770624926541,
        55.7108032362764
      ],
      "type": "Point"
    }
  },
  {
    "ID": "000023376",
    "Name": "КАРАВАН ПРОЖЕКТ",
    "global_id": 637539547,
    "IsNetObject": "нет",
    "OperatingCompany": "",
    "TypeObject": "ресторан",
    "AdmArea": "Юго-Восточный административный округ",
    "District": "район Лефортово",
    "Address": "город Москва, 2-й Кабельный проезд, дом 1",
    "PublicPhone": [
      {
        "PublicPhone": "(495) 744-52-52"
      }
    ],
    "SeatsCount": 91,
    "SocialPrivileges": "нет",
    "Longitude_WGS84": "37.7162880000000000",
    "Latitude_WGS84": "55.7479369990000000",
    "geoData": {
      "coordinates": [
        37.716288,
        55.747936999
      ],
      "type": "Point"
    },
    "geodata_center": {
      "coordinates": [
        37.716288,
        55.747936999
      ],
      "type": "Point"
    }
  },
  {
    "ID": "000025921",
    "Name": "АРИАНА",
    "global_id": 637539549,
    "IsNetObject": "нет",
    "OperatingCompany": "",
    "TypeObject": "ресторан",
    "AdmArea": "Юго-Восточный административный округ",
    "District": "район Выхино-Жулебино",
    "Address": "город Москва, Привольная улица, дом 70",
    "PublicPhone": [
      {
        "PublicPhone": "(495) 704-89-24"
      }
    ],
    "SeatsCount": 75,
    "SocialPrivileges": "нет",
    "Longitude_WGS84": "37.8536880000000000",
    "Latitude_WGS84": "55.6783480000000000",
    "geoData": {
      "coordinates": [
        37.853688,
        55.678348
      ],
      "type": "Point"
    },
    "geodata_center": {
      "coordinates": [
        37.853688,
        55.678348
      ],
      "type": "Point"
    }
  },
  {
    "ID": "000028342",
    "Name": "Столовая в корпорации «Комета»",
    "global_id": 637539557,
    "IsNetObject": "нет",
    "OperatingCompany": "",
    "TypeObject": "столовая",
    "AdmArea": "Юго-Восточный административный округ",
    "District": "Южнопортовый район",
    "Address": "город Москва, Велозаводская улица, дом 5",
    "PublicPhone": [
      {
        "PublicPhone": "(495) 674-08-52"
      }
    ],
    "SeatsCount": 200,
    "SocialPrivileges": "нет",
    "Longitude_WGS84": "37.6667937265455000",
    "Latitude_WGS84": "55.7149502910277000",
    "geoData": {
      "coordinates": [
        37.6667937265455,
        55.7149502910277
      ],
      "type": "Point"
    },
    "geodata_center": {
      "coordinates": [
        37.6667937265455,
        55.7149502910277
      ],
      "type": "Point"
    }
  },
  {
    "ID": "000024507",
    "Name": "ВАРДЗИЯ",
    "global_id": 637539560,
    "IsNetObject": "нет",
    "OperatingCompany": "",
    "TypeObject": "ресторан",
    "AdmArea": "Юго-Восточный административный округ",
    "District": "район Лефортово",
    "Address": "город Москва, шоссе Энтузиастов, домовладение 4, строение 1",
    "PublicPhone": [
      {
        "PublicPhone": "(495) 361-48-11"
      }
    ],
    "SeatsCount": 19,
    "SocialPrivileges": "нет",
    "Longitude_WGS84": "37.6943860000000000",
    "Latitude_WGS84": "55.7474460000000000",
    "geoData": {
      "coordinates": [
        37.694386,
        55.747446
      ],
      "type": "Point"
    },
    "geodata_center": {
      "coordinates": [
        37.694386,
        55.747446
      ],
      "type": "Point"
    }
  },
  {
    "ID": "000028933",
    "Name": "Столовая при ГБОУ СОШ № 1222",
    "global_id": 637539561,
    "IsNetObject": "нет",
    "OperatingCompany": "",
    "TypeObject": "столовая",
    "AdmArea": "Юго-Восточный административный округ",
    "District": "Нижегородский район",
    "Address": "город Москва, Нижегородская улица, дом 67",
    "PublicPhone": [
      {
        "PublicPhone": "(495) 995-13-50"
      }
    ],
    "SeatsCount": 130,
    "SocialPrivileges": "нет",
    "Longitude_WGS84": "37.7200162651897060",
    "Latitude_WGS84": "55.7323438103144180",
    "geoData": {
      "coordinates": [
        37.7200162651897,
        55.7323438103144
      ],
      "type": "Point"
    },
    "geodata_center": {
      "coordinates": [
        37.7200162651897,
        55.7323438103144
      ],
      "type": "Point"
    }
  },
  {
    "ID": "00138222",
    "Name": "Псарьки",
    "global_id": 637539566,
    "IsNetObject": "нет",
    "OperatingCompany": "",
    "TypeObject": "кафе",
    "AdmArea": "Юго-Восточный административный округ",
    "District": "район Лефортово",
    "Address": "город Москва, Авиамоторная улица, дом 12, корпус 2",
    "PublicPhone": [
      {
        "PublicPhone": "нет телефона"
      }
    ],
    "SeatsCount": 50,
    "SocialPrivileges": "нет",
    "Longitude_WGS84": "37.7156798170489650",
    "Latitude_WGS84": "55.7529615335334230",
    "geoData": {
      "coordinates": [
        37.715679817049,
        55.7529615335334
      ],
      "type": "Point"
    },
    "geodata_center": {
      "coordinates": [
        37.715679817049,
        55.7529615335334
      ],
      "type": "Point"
    }
  },
  {
    "ID": "000069332",
    "Name": "Андерсон",
    "global_id": 637539572,
    "IsNetObject": "да",
    "OperatingCompany": "Андерсон",
    "TypeObject": "кафетерий",
    "AdmArea": "Юго-Восточный административный округ",
    "District": "район Марьино",
    "Address": "город Москва, Братиславская улица, дом 6",
    "PublicPhone": [
      {
        "PublicPhone": "(909) 156-46-33"
      }
    ],
    "SeatsCount": 30,
    "SocialPrivileges": "нет",
    "Longitude_WGS84": "37.7537710000000000",
    "Latitude_WGS84": "55.6633089999999000",
    "geoData": {
      "coordinates": [
        37.753771,
        55.6633089999999
      ],
      "type": "Point"
    },
    "geodata_center": {
      "coordinates": [
        37.753771,
        55.6633089999999
      ],
      "type": "Point"
    }
  },
  {
    "ID": "000029301",
    "Name": "Столовая в школе № 2129",
    "global_id": 637539574,
    "IsNetObject": "нет",
    "OperatingCompany": "",
    "TypeObject": "столовая",
    "AdmArea": "Юго-Восточный административный округ",
    "District": "Южнопортовый район",
    "Address": "город Москва, 6-я Кожуховская улица, дом 8",
    "PublicPhone": [
      {
        "PublicPhone": "(968) 026-71-59"
      }
    ],
    "SeatsCount": 215,
    "SocialPrivileges": "нет",
    "Longitude_WGS84": "37.6719221101821000",
    "Latitude_WGS84": "55.7062494653726000",
    "geoData": {
      "coordinates": [
        37.6719221101821,
        55.7062494653726
      ],
      "type": "Point"
    },
    "geodata_center": {
      "coordinates": [
        37.6719221101821,
        55.7062494653726
      ],
      "type": "Point"
    }
  },
  {
    "ID": "00107884",
    "Name": "Восточные вечера",
    "global_id": 637539576,
    "IsNetObject": "нет",
    "OperatingCompany": "",
    "TypeObject": "кафе",
    "AdmArea": "Юго-Восточный административный округ",
    "District": "район Капотня",
    "Address": "город Москва, 2-й квартал Капотня, дом 37",
    "PublicPhone": [
      {
        "PublicPhone": "(495) 355-22-42"
      }
    ],
    "SeatsCount": 35,
    "SocialPrivileges": "нет",
    "Longitude_WGS84": "37.7963190000000000",
    "Latitude_WGS84": "55.6426620000000000",
    "geoData": {
      "coordinates": [
        37.796319,
        55.642662
      ],
      "type": "Point"
    },
    "geodata_center": {
      "coordinates": [
        37.796319,
        55.642662
      ],
      "type": "Point"
    }
  },
  {
    "ID": "000025805",
    "Name": "Папа Джонс",
    "global_id": 637539587,
    "IsNetObject": "да",
    "OperatingCompany": "Папа Джонс",
    "TypeObject": "кафе",
    "AdmArea": "Юго-Восточный административный округ",
    "District": "Рязанский район",
    "Address": "город Москва, 1-я Новокузьминская улица, дом 19, корпус 2",
    "PublicPhone": [
      {
        "PublicPhone": "(495) 995-10-72"
      }
    ],
    "SeatsCount": 25,
    "SocialPrivileges": "нет",
    "Longitude_WGS84": "37.7912564682018580",
    "Latitude_WGS84": "55.7145342155699620",
    "geoData": {
      "coordinates": [
        37.7912564682019,
        55.71453421557
      ],
      "type": "Point"
    },
    "geodata_center": {
      "coordinates": [
        37.7912564682019,
        55.71453421557
      ],
      "type": "Point"
    }
  },
  {
    "ID": "00134558",
    "Name": "Теремок",
    "global_id": 637539597,
    "IsNetObject": "да",
    "OperatingCompany": "Теремок",
    "TypeObject": "кафе",
    "AdmArea": "Юго-Восточный административный округ",
    "District": "район Марьино",
    "Address": "город Москва, Поречная улица, дом 10",
    "PublicPhone": [
      {
        "PublicPhone": "нет телефона"
      }
    ],
    "SeatsCount": 0,
    "SocialPrivileges": "нет",
    "Longitude_WGS84": "37.7701189504750520",
    "Latitude_WGS84": "55.6497174876047250",
    "geoData": {
      "coordinates": [
        37.7701189504751,
        55.6497174876047
      ],
      "type": "Point"
    },
    "geodata_center": {
      "coordinates": [
        37.7701189504751,
        55.6497174876047
      ],
      "type": "Point"
    }
  },
  {
    "ID": "00134575",
    "Name": "KFC",
    "global_id": 637539601,
    "IsNetObject": "да",
    "OperatingCompany": "KFC",
    "TypeObject": "предприятие быстрого обслуживания",
    "AdmArea": "Юго-Восточный административный округ",
    "District": "район Марьино",
    "Address": "город Москва, Поречная улица, дом 10",
    "PublicPhone": [
      {
        "PublicPhone": "нет телефона"
      }
    ],
    "SeatsCount": 0,
    "SocialPrivileges": "нет",
    "Longitude_WGS84": "37.7701189504750520",
    "Latitude_WGS84": "55.6497174876047250",
    "geoData": {
      "coordinates": [
        37.7701189504751,
        55.6497174876047
      ],
      "type": "Point"
    },
    "geodata_center": {
      "coordinates": [
        37.7701189504751,
        55.6497174876047
      ],
      "type": "Point"
    }
  },
  {
    "ID": "000029292",
    "Name": "ГБОУ № 2089 СОШ № 3",
    "global_id": 637539603,
    "IsNetObject": "нет",
    "OperatingCompany": "",
    "TypeObject": "столовая",
    "AdmArea": "Юго-Восточный административный округ",
    "District": "район Некрасовка",
    "Address": "город Москва, 1-я Вольская улица, дом 22, корпус 2",
    "PublicPhone": [
      {
        "PublicPhone": "(499) 171-08-08"
      }
    ],
    "SeatsCount": 140,
    "SocialPrivileges": "нет",
    "Longitude_WGS84": "37.9263920407519210",
    "Latitude_WGS84": "55.6824602855164700",
    "geoData": {
      "coordinates": [
        37.9263920407519,
        55.6824602855165
      ],
      "type": "Point"
    },
    "geodata_center": {
      "coordinates": [
        37.9263920407519,
        55.6824602855165
      ],
      "type": "Point"
    }
  },
  {
    "ID": "000029424",
    "Name": "Школа № 1595",
    "global_id": 637539604,
    "IsNetObject": "нет",
    "OperatingCompany": "",
    "TypeObject": "столовая",
    "AdmArea": "Юго-Восточный административный округ",
    "District": "район Некрасовка",
    "Address": "город Москва, 2-я Вольская улица, дом 7, корпус 2",
    "PublicPhone": [
      {
        "PublicPhone": "(499) 171-08-08"
      }
    ],
    "SeatsCount": 184,
    "SocialPrivileges": "нет",
    "Longitude_WGS84": "37.9231786450154400",
    "Latitude_WGS84": "55.6881551417626780",
    "geoData": {
      "coordinates": [
        37.9231786450154,
        55.6881551417627
      ],
      "type": "Point"
    },
    "geodata_center": {
      "coordinates": [
        37.9231786450154,
        55.6881551417627
      ],
      "type": "Point"
    }
  },
  {
    "ID": "00138398",
    "Name": "Пивной Папа",
    "global_id": 637539606,
    "IsNetObject": "нет",
    "OperatingCompany": "",
    "TypeObject": "бар",
    "AdmArea": "Юго-Восточный административный округ",
    "District": "район Марьино",
    "Address": "город Москва, Братиславская улица, дом 16, корпус 2",
    "PublicPhone": [
      {
        "PublicPhone": "(909) 664-89-64"
      }
    ],
    "SeatsCount": 20,
    "SocialPrivileges": "нет",
    "Longitude_WGS84": "37.7561617162172000",
    "Latitude_WGS84": "55.6579446562265900",
    "geoData": {
      "coordinates": [
        37.7561617162172,
        55.6579446562266
      ],
      "type": "Point"
    },
    "geodata_center": {
      "coordinates": [
        37.7561617162172,
        55.6579446562266
      ],
      "type": "Point"
    }
  },
  {
    "ID": "000068369",
    "Name": "La casa",
    "global_id": 637539608,
    "IsNetObject": "нет",
    "OperatingCompany": "",
    "TypeObject": "кафе",
    "AdmArea": "Юго-Восточный административный округ",
    "District": "район Лефортово",
    "Address": "город Москва, проезд Завода Серп и Молот, дом 10",
    "PublicPhone": [
      {
        "PublicPhone": "(494) 964-95-92"
      }
    ],
    "SeatsCount": 100,
    "SocialPrivileges": "нет",
    "Longitude_WGS84": "37.7023240166532500",
    "Latitude_WGS84": "55.7525779335882700",
    "geoData": {
      "coordinates": [
        37.7023240166533,
        55.7525779335883
      ],
      "type": "Point"
    },
    "geodata_center": {
      "coordinates": [
        37.7023240166533,
        55.7525779335883
      ],
      "type": "Point"
    }
  },
  {
    "ID": "000074056",
    "Name": "Gourmet Lunch столовая",
    "global_id": 637539609,
    "IsNetObject": "нет",
    "OperatingCompany": "",
    "TypeObject": "столовая",
    "AdmArea": "Юго-Восточный административный округ",
    "District": "район Лефортово",
    "Address": "город Москва, проезд Завода Серп и Молот, дом 10",
    "PublicPhone": [
      {
        "PublicPhone": "(916) 134-12-68"
      }
    ],
    "SeatsCount": 180,
    "SocialPrivileges": "нет",
    "Longitude_WGS84": "37.7016661228244000",
    "Latitude_WGS84": "55.7524786445129000",
    "geoData": {
      "coordinates": [
        37.7016661228244,
        55.7524786445129
      ],
      "type": "Point"
    },
    "geodata_center": {
      "coordinates": [
        37.7016661228244,
        55.7524786445129
      ],
      "type": "Point"
    }
  },
  {
    "ID": "000020780",
    "Name": "FriedChicken",
    "global_id": 637539612,
    "IsNetObject": "нет",
    "OperatingCompany": "",
    "TypeObject": "кафе",
    "AdmArea": "Юго-Восточный административный округ",
    "District": "район Лефортово",
    "Address": "город Москва, шоссе Энтузиастов, дом 12, корпус 2",
    "PublicPhone": [
      {
        "PublicPhone": "(495) 673-53-74"
      }
    ],
    "SeatsCount": 40,
    "SocialPrivileges": "нет",
    "Longitude_WGS84": "37.7078224366559000",
    "Latitude_WGS84": "55.7480460396089000",
    "geoData": {
      "coordinates": [
        37.7078224366559,
        55.7480460396089
      ],
      "type": "Point"
    },
    "geodata_center": {
      "coordinates": [
        37.7078224366559,
        55.7480460396089
      ],
      "type": "Point"
    }
  },
  {
    "ID": "00095406",
    "Name": "СтардогS",
    "global_id": 637539624,
    "IsNetObject": "да",
    "OperatingCompany": "СтардогS",
    "TypeObject": "закусочная",
    "AdmArea": "Юго-Восточный административный округ",
    "District": "район Лефортово",
    "Address": "город Москва, шоссе Энтузиастов, дом 12, корпус 2",
    "PublicPhone": [
      {
        "PublicPhone": "(495) 566-87-77"
      }
    ],
    "SeatsCount": 4,
    "SocialPrivileges": "нет",
    "Longitude_WGS84": "37.7069724852104640",
    "Latitude_WGS84": "55.7474041431465250",
    "geoData": {
      "coordinates": [
        37.7069724852105,
        55.7474041431465
      ],
      "type": "Point"
    },
    "geodata_center": {
      "coordinates": [
        37.7069724852105,
        55.7474041431465
      ],
      "type": "Point"
    }
  },
  {
    "ID": "000053104",
    "Name": "STARBUCKS COFFEE Старбакс",
    "global_id": 637539627,
    "IsNetObject": "да",
    "OperatingCompany": "Старбакс",
    "TypeObject": "кафе",
    "AdmArea": "Юго-Восточный административный округ",
    "District": "район Лефортово",
    "Address": "город Москва, шоссе Энтузиастов, дом 12, корпус 2",
    "PublicPhone": [
      {
        "PublicPhone": "(495) 673-53-74"
      }
    ],
    "SeatsCount": 50,
    "SocialPrivileges": "нет",
    "Longitude_WGS84": "37.7078087984301000",
    "Latitude_WGS84": "55.7480647413334000",
    "geoData": {
      "coordinates": [
        37.7078087984301,
        55.7480647413334
      ],
      "type": "Point"
    },
    "geodata_center": {
      "coordinates": [
        37.7078087984301,
        55.7480647413334
      ],
      "type": "Point"
    }
  },
  {
    "ID": "00157763",
    "Name": "Чайхона",
    "global_id": 637539632,
    "IsNetObject": "нет",
    "OperatingCompany": "",
    "TypeObject": "кафе",
    "AdmArea": "Юго-Восточный административный округ",
    "District": "район Лефортово",
    "Address": "город Москва, шоссе Энтузиастов, дом 12, корпус 2",
    "PublicPhone": [
      {
        "PublicPhone": "(903) 597-44-12"
      }
    ],
    "SeatsCount": 20,
    "SocialPrivileges": "нет",
    "Longitude_WGS84": "37.7078327661249160",
    "Latitude_WGS84": "55.7480034766054900",
    "geoData": {
      "coordinates": [
        37.7078327661249,
        55.7480034766055
      ],
      "type": "Point"
    },
    "geodata_center": {
      "coordinates": [
        37.7078327661249,
        55.7480034766055
      ],
      "type": "Point"
    }
  },
  {
    "ID": "00158072",
    "Name": "Иль Патио Планета Суши",
    "global_id": 637539634,
    "IsNetObject": "да",
    "OperatingCompany": "Иль Патио Планета Суши",
    "TypeObject": "ресторан",
    "AdmArea": "Юго-Восточный административный округ",
    "District": "район Лефортово",
    "Address": "город Москва, шоссе Энтузиастов, дом 12, корпус 2",
    "PublicPhone": [
      {
        "PublicPhone": "(964) 796-57-87"
      }
    ],
    "SeatsCount": 70,
    "SocialPrivileges": "нет",
    "Longitude_WGS84": "37.7078327661249160",
    "Latitude_WGS84": "55.7480034766054900",
    "geoData": {
      "coordinates": [
        37.7078327661249,
        55.7480034766055
      ],
      "type": "Point"
    },
    "geodata_center": {
      "coordinates": [
        37.7078327661249,
        55.7480034766055
      ],
      "type": "Point"
    }
  },
  {
    "ID": "00092405",
    "Name": "Yummy MIX Ямми Микс",
    "global_id": 637539636,
    "IsNetObject": "да",
    "OperatingCompany": "Ямми Микс",
    "TypeObject": "кафетерий",
    "AdmArea": "Юго-Восточный административный округ",
    "District": "район Лефортово",
    "Address": "город Москва, шоссе Энтузиастов, дом 12, корпус 2",
    "PublicPhone": [
      {
        "PublicPhone": "(495) 673-53-74"
      }
    ],
    "SeatsCount": 2,
    "SocialPrivileges": "нет",
    "Longitude_WGS84": "37.7069724852104640",
    "Latitude_WGS84": "55.7474041431465250",
    "geoData": {
      "coordinates": [
        37.7069724852105,
        55.7474041431465
      ],
      "type": "Point"
    },
    "geodata_center": {
      "coordinates": [
        37.7069724852105,
        55.7474041431465
      ],
      "type": "Point"
    }
  },
  {
    "ID": "00092407",
    "Name": "Ямас Греческая таверна",
    "global_id": 637539637,
    "IsNetObject": "нет",
    "OperatingCompany": "",
    "TypeObject": "предприятие быстрого обслуживания",
    "AdmArea": "Юго-Восточный административный округ",
    "District": "район Лефортово",
    "Address": "город Москва, шоссе Энтузиастов, дом 12, корпус 2",
    "PublicPhone": [
      {
        "PublicPhone": "(495) 673-54-73"
      }
    ],
    "SeatsCount": 4,
    "SocialPrivileges": "нет",
    "Longitude_WGS84": "37.7069724852104640",
    "Latitude_WGS84": "55.7474041431465250",
    "geoData": {
      "coordinates": [
        37.7069724852105,
        55.7474041431465
      ],
      "type": "Point"
    },
    "geodata_center": {
      "coordinates": [
        37.7069724852105,
        55.7474041431465
      ],
      "type": "Point"
    }
  },
  {
    "ID": "000023554",
    "Name": "Султан Palace",
    "global_id": 637539662,
    "IsNetObject": "нет",
    "OperatingCompany": "",
    "TypeObject": "ресторан",
    "AdmArea": "Юго-Восточный административный округ",
    "District": "район Текстильщики",
    "Address": "город Москва, Грайвороновская улица, дом 12, корпус 2",
    "PublicPhone": [
      {
        "PublicPhone": "(925) 507-41-31"
      }
    ],
    "SeatsCount": 500,
    "SocialPrivileges": "нет",
    "Longitude_WGS84": "37.7327277885504000",
    "Latitude_WGS84": "55.7197244951759000",
    "geoData": {
      "coordinates": [
        37.7327277885504,
        55.7197244951759
      ],
      "type": "Point"
    },
    "geodata_center": {
      "coordinates": [
        37.7327277885504,
        55.7197244951759
      ],
      "type": "Point"
    }
  },
  {
    "ID": "000074363",
    "Name": "Брудер",
    "global_id": 637539667,
    "IsNetObject": "да",
    "OperatingCompany": "Брудер",
    "TypeObject": "ресторан",
    "AdmArea": "Юго-Восточный административный округ",
    "District": "район Выхино-Жулебино",
    "Address": "город Москва, Привольная улица, дом 59",
    "PublicPhone": [
      {
        "PublicPhone": "(495) 792-66-88"
      }
    ],
    "SeatsCount": 190,
    "SocialPrivileges": "нет",
    "Longitude_WGS84": "37.8445580000000000",
    "Latitude_WGS84": "55.6829740000000000",
    "geoData": {
      "coordinates": [
        37.844558,
        55.682974
      ],
      "type": "Point"
    },
    "geodata_center": {
      "coordinates": [
        37.844558,
        55.682974
      ],
      "type": "Point"
    }
  },
  {
    "ID": "00154378",
    "Name": "KFC",
    "global_id": 637539668,
    "IsNetObject": "да",
    "OperatingCompany": "KFC",
    "TypeObject": "предприятие быстрого обслуживания",
    "AdmArea": "Юго-Восточный административный округ",
    "District": "район Печатники",
    "Address": "город Москва, Шоссейная улица, дом 2, корпус 3",
    "PublicPhone": [
      {
        "PublicPhone": "(499) 348-96-24"
      }
    ],
    "SeatsCount": 118,
    "SocialPrivileges": "нет",
    "Longitude_WGS84": "37.7275375878029850",
    "Latitude_WGS84": "55.6923997249021380",
    "geoData": {
      "coordinates": [
        37.727537587803,
        55.6923997249021
      ],
      "type": "Point"
    },
    "geodata_center": {
      "coordinates": [
        37.727537587803,
        55.6923997249021
      ],
      "type": "Point"
    }
  },
  {
    "ID": "000029407",
    "Name": "Столовая в школе им. В.В. Маяковского",
    "global_id": 637539670,
    "IsNetObject": "нет",
    "OperatingCompany": "",
    "TypeObject": "столовая",
    "AdmArea": "Юго-Восточный административный округ",
    "District": "Южнопортовый район",
    "Address": "город Москва, улица Крутицкий Вал, дом 5",
    "PublicPhone": [
      {
        "PublicPhone": "(968) 026-71-59"
      }
    ],
    "SeatsCount": 240,
    "SocialPrivileges": "нет",
    "Longitude_WGS84": "37.6662940000000010",
    "Latitude_WGS84": "55.7292027496415370",
    "geoData": {
      "coordinates": [
        37.666294,
        55.7292027496415
      ],
      "type": "Point"
    },
    "geodata_center": {
      "coordinates": [
        37.666294,
        55.7292027496415
      ],
      "type": "Point"
    }
  },
  {
    "ID": "000024828",
    "Name": "Кафе Халяль",
    "global_id": 637539672,
    "IsNetObject": "нет",
    "OperatingCompany": "",
    "TypeObject": "кафе",
    "AdmArea": "Юго-Восточный административный округ",
    "District": "район Текстильщики",
    "Address": "город Москва, 8-я улица Текстильщиков, дом 5, корпус 2",
    "PublicPhone": [
      {
        "PublicPhone": "(926) 348-55-42"
      }
    ],
    "SeatsCount": 45,
    "SocialPrivileges": "нет",
    "Longitude_WGS84": "37.7414181457584000",
    "Latitude_WGS84": "55.7044449876782000",
    "geoData": {
      "coordinates": [
        37.7414181457584,
        55.7044449876782
      ],
      "type": "Point"
    },
    "geodata_center": {
      "coordinates": [
        37.7414181457584,
        55.7044449876782
      ],
      "type": "Point"
    }
  },
  {
    "ID": "000029264",
    "Name": "Столовая 1420-1",
    "global_id": 637539692,
    "IsNetObject": "нет",
    "OperatingCompany": "",
    "TypeObject": "столовая",
    "AdmArea": "Юго-Восточный административный округ",
    "District": "район Выхино-Жулебино",
    "Address": "город Москва, Ташкентская улица, дом 21, корпус 2, строение 2",
    "PublicPhone": [
      {
        "PublicPhone": "(495) 376-78-38"
      }
    ],
    "SeatsCount": 200,
    "SocialPrivileges": "нет",
    "Longitude_WGS84": "37.8158421293549270",
    "Latitude_WGS84": "55.7009895447113340",
    "geoData": {
      "coordinates": [
        37.8158421293549,
        55.7009895447113
      ],
      "type": "Point"
    },
    "geodata_center": {
      "coordinates": [
        37.8158421293549,
        55.7009895447113
      ],
      "type": "Point"
    }
  },
  {
    "ID": "000083555",
    "Name": "Джон Джоли",
    "global_id": 637539693,
    "IsNetObject": "да",
    "OperatingCompany": "Джон Джоли",
    "TypeObject": "ресторан",
    "AdmArea": "Юго-Восточный административный округ",
    "District": "район Кузьминки",
    "Address": "город Москва, Волгоградский проспект, дом 117, корпус 3",
    "PublicPhone": [
      {
        "PublicPhone": "(495) 744-84-99"
      }
    ],
    "SeatsCount": 96,
    "SocialPrivileges": "нет",
    "Longitude_WGS84": "37.7636305840253070",
    "Latitude_WGS84": "55.7062159005058040",
    "geoData": {
      "coordinates": [
        37.7636305840253,
        55.7062159005058
      ],
      "type": "Point"
    },
    "geodata_center": {
      "coordinates": [
        37.7636305840253,
        55.7062159005058
      ],
      "type": "Point"
    }
  },
  {
    "ID": "000069928",
    "Name": "Якитория",
    "global_id": 637539699,
    "IsNetObject": "да",
    "OperatingCompany": "Якитория",
    "TypeObject": "ресторан",
    "AdmArea": "Юго-Восточный административный округ",
    "District": "район Кузьминки",
    "Address": "город Москва, Волгоградский проспект, дом 133, корпус 2",
    "PublicPhone": [
      {
        "PublicPhone": "(495) 766-90-45"
      }
    ],
    "SeatsCount": 90,
    "SocialPrivileges": "нет",
    "Longitude_WGS84": "37.7718950000000080",
    "Latitude_WGS84": "55.7051487426818850",
    "geoData": {
      "coordinates": [
        37.771895,
        55.7051487426819
      ],
      "type": "Point"
    },
    "geodata_center": {
      "coordinates": [
        37.771895,
        55.7051487426819
      ],
      "type": "Point"
    }
  },
  {
    "ID": "00150684",
    "Name": "Домино\u0027с Пицца",
    "global_id": 637539701,
    "IsNetObject": "да",
    "OperatingCompany": "Домино\u0027с Пицца",
    "TypeObject": "кафе",
    "AdmArea": "Юго-Восточный административный округ",
    "District": "район Кузьминки",
    "Address": "город Москва, Волгоградский проспект, дом 133, корпус 2",
    "PublicPhone": [
      {
        "PublicPhone": "нет телефона"
      }
    ],
    "SeatsCount": 16,
    "SocialPrivileges": "нет",
    "Longitude_WGS84": "37.7719240258941720",
    "Latitude_WGS84": "55.7051686284365320",
    "geoData": {
      "coordinates": [
        37.7719240258942,
        55.7051686284365
      ],
      "type": "Point"
    },
    "geodata_center": {
      "coordinates": [
        37.7719240258942,
        55.7051686284365
      ],
      "type": "Point"
    }
  },
  {
    "ID": "00095043",
    "Name": "Кавказская кухня",
    "global_id": 637539731,
    "IsNetObject": "нет",
    "OperatingCompany": "",
    "TypeObject": "буфет",
    "AdmArea": "Юго-Восточный административный округ",
    "District": "Южнопортовый район",
    "Address": "город Москва, Шарикоподшипниковская улица, дом 13, строение 3",
    "PublicPhone": [
      {
        "PublicPhone": "(903) 151-12-00"
      }
    ],
    "SeatsCount": 60,
    "SocialPrivileges": "нет",
    "Longitude_WGS84": "37.6830536467862560",
    "Latitude_WGS84": "55.7188909491833040",
    "geoData": {
      "coordinates": [
        37.6830536467863,
        55.7188909491833
      ],
      "type": "Point"
    },
    "geodata_center": {
      "coordinates": [
        37.6830536467863,
        55.7188909491833
      ],
      "type": "Point"
    }
  },
  {
    "ID": "00095099",
    "Name": "Кафе",
    "global_id": 637539742,
    "IsNetObject": "нет",
    "OperatingCompany": "",
    "TypeObject": "буфет",
    "AdmArea": "Юго-Восточный административный округ",
    "District": "Южнопортовый район",
    "Address": "город Москва, Шарикоподшипниковская улица, дом 13, строение 3",
    "PublicPhone": [
      {
        "PublicPhone": "(495) 933-88-10"
      }
    ],
    "SeatsCount": 50,
    "SocialPrivileges": "нет",
    "Longitude_WGS84": "37.6830536467862560",
    "Latitude_WGS84": "55.7188909491833040",
    "geoData": {
      "coordinates": [
        37.6830536467863,
        55.7188909491833
      ],
      "type": "Point"
    },
    "geodata_center": {
      "coordinates": [
        37.6830536467863,
        55.7188909491833
      ],
      "type": "Point"
    }
  },
  {
    "ID": "00095104",
    "Name": "Кафе",
    "global_id": 637539744,
    "IsNetObject": "нет",
    "OperatingCompany": "",
    "TypeObject": "буфет",
    "AdmArea": "Юго-Восточный административный округ",
    "District": "Южнопортовый район",
    "Address": "город Москва, Шарикоподшипниковская улица, дом 13, строение 3",
    "PublicPhone": [
      {
        "PublicPhone": "(495) 933-88-10"
      }
    ],
    "SeatsCount": 60,
    "SocialPrivileges": "нет",
    "Longitude_WGS84": "37.6830536467862560",
    "Latitude_WGS84": "55.7188909491833040",
    "geoData": {
      "coordinates": [
        37.6830536467863,
        55.7188909491833
      ],
      "type": "Point"
    },
    "geodata_center": {
      "coordinates": [
        37.6830536467863,
        55.7188909491833
      ],
      "type": "Point"
    }
  },
  {
    "ID": "000072656",
    "Name": "KFC",
    "global_id": 637539761,
    "IsNetObject": "да",
    "OperatingCompany": "KFC",
    "TypeObject": "предприятие быстрого обслуживания",
    "AdmArea": "Юго-Восточный административный округ",
    "District": "район Выхино-Жулебино",
    "Address": "город Москва, Волгоградский проспект, дом 166, корпус 1",
    "PublicPhone": [
      {
        "PublicPhone": "(925) 005-04-92"
      }
    ],
    "SeatsCount": 100,
    "SocialPrivileges": "нет",
    "Longitude_WGS84": "37.8097940000000000",
    "Latitude_WGS84": "55.6947130000000000",
    "geoData": {
      "coordinates": [
        37.809794,
        55.694713
      ],
      "type": "Point"
    },
    "geodata_center": {
      "coordinates": [
        37.809794,
        55.694713
      ],
      "type": "Point"
    }
  },
  {
    "ID": "00130983",
    "Name": "Иль Патио",
    "global_id": 637539769,
    "IsNetObject": "да",
    "OperatingCompany": "Иль Патио",
    "TypeObject": "ресторан",
    "AdmArea": "Юго-Восточный административный округ",
    "District": "Южнопортовый район",
    "Address": "город Москва, 7-я Кожуховская улица, дом 9",
    "PublicPhone": [
      {
        "PublicPhone": "(495) 105-93-67"
      }
    ],
    "SeatsCount": 120,
    "SocialPrivileges": "нет",
    "Longitude_WGS84": "37.6754410000000000",
    "Latitude_WGS84": "55.7106670000000000",
    "geoData": {
      "coordinates": [
        37.675441,
        55.710667
      ],
      "type": "Point"
    },
    "geodata_center": {
      "coordinates": [
        37.675441,
        55.710667
      ],
      "type": "Point"
    }
  },
  {
    "ID": "00128770",
    "Name": "Теремок",
    "global_id": 637539779,
    "IsNetObject": "да",
    "OperatingCompany": "Теремок",
    "TypeObject": "предприятие быстрого обслуживания",
    "AdmArea": "Юго-Восточный административный округ",
    "District": "Южнопортовый район",
    "Address": "город Москва, 7-я Кожуховская улица, дом 9",
    "PublicPhone": [
      {
        "PublicPhone": "(495) 956-27-30"
      }
    ],
    "SeatsCount": 25,
    "SocialPrivileges": "нет",
    "Longitude_WGS84": "37.6695979114192310",
    "Latitude_WGS84": "55.7054919247015410",
    "geoData": {
      "coordinates": [
        37.6695979114192,
        55.7054919247015
      ],
      "type": "Point"
    },
    "geodata_center": {
      "coordinates": [
        37.6695979114192,
        55.7054919247015
      ],
      "type": "Point"
    }
  },
  {
    "ID": "00092468",
    "Name": "Бургер Кинг Burger King",
    "global_id": 637539788,
    "IsNetObject": "да",
    "OperatingCompany": "Бургер Кинг",
    "TypeObject": "предприятие быстрого обслуживания",
    "AdmArea": "Юго-Восточный административный округ",
    "District": "Южнопортовый район",
    "Address": "город Москва, 7-я Кожуховская улица, дом 9",
    "PublicPhone": [
      {
        "PublicPhone": "(916) 469-56-18"
      }
    ],
    "SeatsCount": 30,
    "SocialPrivileges": "нет",
    "Longitude_WGS84": "37.6695979114192310",
    "Latitude_WGS84": "55.7054919247015410",
    "geoData": {
      "coordinates": [
        37.6695979114192,
        55.7054919247015
      ],
      "type": "Point"
    },
    "geodata_center": {
      "coordinates": [
        37.6695979114192,
        55.7054919247015
      ],
      "type": "Point"
    }
  },
  {
    "ID": "00145332",
    "Name": "Кафе при АЗС",
    "global_id": 637539790,
    "IsNetObject": "да",
    "OperatingCompany": "Лукойл",
    "TypeObject": "предприятие быстрого обслуживания",
    "AdmArea": "Юго-Восточный административный округ",
    "District": "район Некрасовка",
    "Address": "город Москва, Покровская улица, владение 26, строение 1",
    "PublicPhone": [
      {
        "PublicPhone": "нет телефона"
      }
    ],
    "SeatsCount": 16,
    "SocialPrivileges": "нет",
    "Longitude_WGS84": "37.9201610000000000",
    "Latitude_WGS84": "55.7075730000000000",
    "geoData": {
      "coordinates": [
        37.920161,
        55.707573
      ],
      "type": "Point"
    },
    "geodata_center": {
      "coordinates": [
        37.920161,
        55.707573
      ],
      "type": "Point"
    }
  },
  {
    "ID": "000024881",
    "Name": "Вьеткафе",
    "global_id": 637539793,
    "IsNetObject": "да",
    "OperatingCompany": "Вьеткафе",
    "TypeObject": "кафе",
    "AdmArea": "Юго-Западный административный округ",
    "District": "район Черёмушки",
    "Address": "город Москва, улица Намёткина, дом 13А",
    "PublicPhone": [
      {
        "PublicPhone": "(495) 331-51-00"
      }
    ],
    "SeatsCount": 96,
    "SocialPrivileges": "нет",
    "Longitude_WGS84": "37.5544200933064690",
    "Latitude_WGS84": "55.6627402082786200",
    "geoData": {
      "coordinates": [
        37.5544200933065,
        55.6627402082786
      ],
      "type": "Point"
    },
    "geodata_center": {
      "coordinates": [
        37.5544200933065,
        55.6627402082786
      ],
      "type": "Point"
    }
  },
  {
    "ID": "000027618",
    "Name": "СТОЛОВАЯ ШК. 1108",
    "global_id": 637539797,
    "IsNetObject": "нет",
    "OperatingCompany": "",
    "TypeObject": "столовая",
    "AdmArea": "Юго-Западный административный округ",
    "District": "район Ясенево",
    "Address": "город Москва, Соловьиный проезд, дом 16, корпус 2",
    "PublicPhone": [
      {
        "PublicPhone": "(495) 426-99-55"
      }
    ],
    "SeatsCount": 103,
    "SocialPrivileges": "нет",
    "Longitude_WGS84": "37.5543745477221980",
    "Latitude_WGS84": "55.6058046351518700",
    "geoData": {
      "coordinates": [
        37.5543745477222,
        55.6058046351519
      ],
      "type": "Point"
    },
    "geodata_center": {
      "coordinates": [
        37.5543745477222,
        55.6058046351519
      ],
      "type": "Point"
    }
  },
  {
    "ID": "000027614",
    "Name": "СТОЛОВАЯ ШК. 125",
    "global_id": 637539798,
    "IsNetObject": "нет",
    "OperatingCompany": "",
    "TypeObject": "столовая",
    "AdmArea": "Юго-Западный административный округ",
    "District": "район Ясенево",
    "Address": "город Москва, Голубинская улица, дом 5, корпус 2",
    "PublicPhone": [
      {
        "PublicPhone": "(495) 421-49-77"
      }
    ],
    "SeatsCount": 103,
    "SocialPrivileges": "нет",
    "Longitude_WGS84": "37.5173633989510550",
    "Latitude_WGS84": "55.6066822167554880",
    "geoData": {
      "coordinates": [
        37.5173633989511,
        55.6066822167555
      ],
      "type": "Point"
    },
    "geodata_center": {
      "coordinates": [
        37.5173633989511,
        55.6066822167555
      ],
      "type": "Point"
    }
  },
  {
    "ID": "000029613",
    "Name": "Столовая ГБОУ Школа № 1532 здание 3",
    "global_id": 637539800,
    "IsNetObject": "нет",
    "OperatingCompany": "",
    "TypeObject": "столовая",
    "AdmArea": "Юго-Западный административный округ",
    "District": "район Тёплый Стан",
    "Address": "город Москва, улица Генерала Тюленева, дом 19",
    "PublicPhone": [
      {
        "PublicPhone": "(495) 337-44-00"
      }
    ],
    "SeatsCount": 200,
    "SocialPrivileges": "нет",
    "Longitude_WGS84": "37.5094019635248000",
    "Latitude_WGS84": "55.6329367063368000",
    "geoData": {
      "coordinates": [
        37.5094019635248,
        55.6329367063368
      ],
      "type": "Point"
    },
    "geodata_center": {
      "coordinates": [
        37.5094019635248,
        55.6329367063368
      ],
      "type": "Point"
    }
  },
  {
    "ID": "00155957",
    "Name": "БЕРЕЗКА",
    "global_id": 637539801,
    "IsNetObject": "нет",
    "OperatingCompany": "",
    "TypeObject": "кафе",
    "AdmArea": "Юго-Западный административный округ",
    "District": "Академический район",
    "Address": "город Москва, улица Кедрова, дом 7А",
    "PublicPhone": [
      {
        "PublicPhone": "(499) 129-55-83"
      }
    ],
    "SeatsCount": 26,
    "SocialPrivileges": "нет",
    "Longitude_WGS84": "37.5685232503100150",
    "Latitude_WGS84": "55.6854288737375210",
    "geoData": {
      "coordinates": [
        37.56852325031,
        55.6854288737375
      ],
      "type": "Point"
    },
    "geodata_center": {
      "coordinates": [
        37.56852325031,
        55.6854288737375
      ],
      "type": "Point"
    }
  },
  {
    "ID": "000072863",
    "Name": "Столовая «Примус»",
    "global_id": 637539806,
    "IsNetObject": "нет",
    "OperatingCompany": "",
    "TypeObject": "столовая",
    "AdmArea": "Юго-Западный административный округ",
    "District": "район Тёплый Стан",
    "Address": "город Москва, улица Академика Варги, дом 8, корпус 1",
    "PublicPhone": [
      {
        "PublicPhone": "(499) 793-48-40"
      }
    ],
    "SeatsCount": 115,
    "SocialPrivileges": "нет",
    "Longitude_WGS84": "37.4745451581844000",
    "Latitude_WGS84": "55.6300320154752000",
    "geoData": {
      "coordinates": [
        37.4745451581844,
        55.6300320154752
      ],
      "type": "Point"
    },
    "geodata_center": {
      "coordinates": [
        37.4745451581844,
        55.6300320154752
      ],
      "type": "Point"
    }
  },
  {
    "ID": "00137778",
    "Name": "Хинкальная",
    "global_id": 637539808,
    "IsNetObject": "да",
    "OperatingCompany": "Хинкальная",
    "TypeObject": "кафе",
    "AdmArea": "Юго-Западный административный округ",
    "District": "район Тёплый Стан",
    "Address": "город Москва, улица Академика Варги, дом 8, корпус 1",
    "PublicPhone": [
      {
        "PublicPhone": "(495) 339-34-66"
      }
    ],
    "SeatsCount": 60,
    "SocialPrivileges": "нет",
    "Longitude_WGS84": "37.4746640820595400",
    "Latitude_WGS84": "55.6302206058392840",
    "geoData": {
      "coordinates": [
        37.4746640820595,
        55.6302206058393
      ],
      "type": "Point"
    },
    "geodata_center": {
      "coordinates": [
        37.4746640820595,
        55.6302206058393
      ],
      "type": "Point"
    }
  },
  {
    "ID": "000029365",
    "Name": "Буфет Школа № 1279",
    "global_id": 637539818,
    "IsNetObject": "нет",
    "OperatingCompany": "",
    "TypeObject": "столовая",
    "AdmArea": "Юго-Западный административный округ",
    "District": "район Зюзино",
    "Address": "город Москва, Сивашская улица, дом 2, корпус 1",
    "PublicPhone": [
      {
        "PublicPhone": "(929) 623-03-21"
      }
    ],
    "SeatsCount": 70,
    "SocialPrivileges": "нет",
    "Longitude_WGS84": "37.6063383560267250",
    "Latitude_WGS84": "55.6604718281418800",
    "geoData": {
      "coordinates": [
        37.6063383560267,
        55.6604718281419
      ],
      "type": "Point"
    },
    "geodata_center": {
      "coordinates": [
        37.6063383560267,
        55.6604718281419
      ],
      "type": "Point"
    }
  },
  {
    "ID": "000029072",
    "Name": "Столовая школы 793",
    "global_id": 637539819,
    "IsNetObject": "нет",
    "OperatingCompany": "",
    "TypeObject": "столовая",
    "AdmArea": "Юго-Западный административный округ",
    "District": "район Коньково",
    "Address": "город Москва, улица Бутлерова, дом 24А",
    "PublicPhone": [
      {
        "PublicPhone": "(495) 333-44-07"
      }
    ],
    "SeatsCount": 220,
    "SocialPrivileges": "нет",
    "Longitude_WGS84": "37.5370852449494520",
    "Latitude_WGS84": "55.6472410570078250",
    "geoData": {
      "coordinates": [
        37.5370852449495,
        55.6472410570078
      ],
      "type": "Point"
    },
    "geodata_center": {
      "coordinates": [
        37.5370852449495,
        55.6472410570078
      ],
      "type": "Point"
    }
  },
  {
    "ID": "000029627",
    "Name": "Школьная столовая",
    "global_id": 637539822,
    "IsNetObject": "нет",
    "OperatingCompany": "",
    "TypeObject": "столовая",
    "AdmArea": "Юго-Западный административный округ",
    "District": "район Черёмушки",
    "Address": "город Москва, Перекопская улица, дом 28",
    "PublicPhone": [
      {
        "PublicPhone": "(495) 332-62-38"
      }
    ],
    "SeatsCount": 35,
    "SocialPrivileges": "нет",
    "Longitude_WGS84": "37.5702035175625540",
    "Latitude_WGS84": "55.6615891320743400",
    "geoData": {
      "coordinates": [
        37.5702035175626,
        55.6615891320743
      ],
      "type": "Point"
    },
    "geodata_center": {
      "coordinates": [
        37.5702035175626,
        55.6615891320743
      ],
      "type": "Point"
    }
  },
  {
    "ID": "000069828",
    "Name": "Урюк",
    "global_id": 637539825,
    "IsNetObject": "да",
    "OperatingCompany": "Урюк",
    "TypeObject": "кафе",
    "AdmArea": "Юго-Западный административный округ",
    "District": "Ломоносовский район",
    "Address": "город Москва, улица Вавилова, дом 69/75",
    "PublicPhone": [
      {
        "PublicPhone": "(906) 053-57-56"
      }
    ],
    "SeatsCount": 170,
    "SocialPrivileges": "нет",
    "Longitude_WGS84": "37.5508300000000000",
    "Latitude_WGS84": "55.6827110000000000",
    "geoData": {
      "coordinates": [
        37.55083,
        55.682711
      ],
      "type": "Point"
    },
    "geodata_center": {
      "coordinates": [
        37.55083,
        55.682711
      ],
      "type": "Point"
    }
  },
  {
    "ID": "000029071",
    "Name": "Столовая школы 1273",
    "global_id": 637539828,
    "IsNetObject": "нет",
    "OperatingCompany": "",
    "TypeObject": "столовая",
    "AdmArea": "Юго-Западный административный округ",
    "District": "район Коньково",
    "Address": "город Москва, улица Академика Капицы, дом 14А",
    "PublicPhone": [
      {
        "PublicPhone": "(495) 420-17-22"
      }
    ],
    "SeatsCount": 200,
    "SocialPrivileges": "нет",
    "Longitude_WGS84": "37.5232941636361520",
    "Latitude_WGS84": "55.6283408555605230",
    "geoData": {
      "coordinates": [
        37.5232941636362,
        55.6283408555605
      ],
      "type": "Point"
    },
    "geodata_center": {
      "coordinates": [
        37.5232941636362,
        55.6283408555605
      ],
      "type": "Point"
    }
  },
  {
    "ID": "000070016",
    "Name": "СТОЛОВАЯ ШК.862",
    "global_id": 637539830,
    "IsNetObject": "нет",
    "OperatingCompany": "",
    "TypeObject": "столовая",
    "AdmArea": "Юго-Западный административный округ",
    "District": "район Ясенево",
    "Address": "город Москва, Голубинская улица, дом 23, корпус 2",
    "PublicPhone": [
      {
        "PublicPhone": "(495) 422-40-66"
      }
    ],
    "SeatsCount": 103,
    "SocialPrivileges": "нет",
    "Longitude_WGS84": "37.5323654179586370",
    "Latitude_WGS84": "55.5991623312601600",
    "geoData": {
      "coordinates": [
        37.5323654179586,
        55.5991623312602
      ],
      "type": "Point"
    },
    "geodata_center": {
      "coordinates": [
        37.5323654179586,
        55.5991623312602
      ],
      "type": "Point"
    }
  },
  {
    "ID": "000023854",
    "Name": "Папа Джонс",
    "global_id": 637539839,
    "IsNetObject": "да",
    "OperatingCompany": "Папа Джонс",
    "TypeObject": "предприятие быстрого обслуживания",
    "AdmArea": "Юго-Западный административный округ",
    "District": "Академический район",
    "Address": "город Москва, улица Кржижановского, владение 22, строение 1",
    "PublicPhone": [
      {
        "PublicPhone": "(906) 739-20-21"
      }
    ],
    "SeatsCount": 25,
    "SocialPrivileges": "нет",
    "Longitude_WGS84": "37.5744935499265000",
    "Latitude_WGS84": "55.6777035664080000",
    "geoData": {
      "coordinates": [
        37.5744935499265,
        55.677703566408
      ],
      "type": "Point"
    },
    "geodata_center": {
      "coordinates": [
        37.5744935499265,
        55.677703566408
      ],
      "type": "Point"
    }
  },
  {
    "ID": "000029616",
    "Name": "Столовая ГБОУ Школа № 1532 здание 2",
    "global_id": 637539845,
    "IsNetObject": "нет",
    "OperatingCompany": "",
    "TypeObject": "столовая",
    "AdmArea": "Юго-Западный административный округ",
    "District": "район Тёплый Стан",
    "Address": "город Москва, Профсоюзная улица, дом 156, корпус 6",
    "PublicPhone": [
      {
        "PublicPhone": "(495) 338-01-00"
      }
    ],
    "SeatsCount": 160,
    "SocialPrivileges": "нет",
    "Longitude_WGS84": "37.4936624990532000",
    "Latitude_WGS84": "55.6180713124840000",
    "geoData": {
      "coordinates": [
        37.4936624990532,
        55.618071312484
      ],
      "type": "Point"
    },
    "geodata_center": {
      "coordinates": [
        37.4936624990532,
        55.618071312484
      ],
      "type": "Point"
    }
  },
  {
    "ID": "000029615",
    "Name": "Столовая ГБОУ школа № 109",
    "global_id": 637539847,
    "IsNetObject": "нет",
    "OperatingCompany": "",
    "TypeObject": "столовая",
    "AdmArea": "Юго-Западный административный округ",
    "District": "район Тёплый Стан",
    "Address": "город Москва, Ленинский проспект, дом 131, корпус 4",
    "PublicPhone": [
      {
        "PublicPhone": "(495) 438-49-02"
      }
    ],
    "SeatsCount": 300,
    "SocialPrivileges": "нет",
    "Longitude_WGS84": "37.4791942094809370",
    "Latitude_WGS84": "55.6423593331525550",
    "geoData": {
      "coordinates": [
        37.4791942094809,
        55.6423593331526
      ],
      "type": "Point"
    },
    "geodata_center": {
      "coordinates": [
        37.4791942094809,
        55.6423593331526
      ],
      "type": "Point"
    }
  },
  {
    "ID": "000029612",
    "Name": "Столовая ГБОУ Школа № 1101 здание 1.1",
    "global_id": 637539849,
    "IsNetObject": "нет",
    "OperatingCompany": "",
    "TypeObject": "столовая",
    "AdmArea": "Юго-Западный административный округ",
    "District": "район Тёплый Стан",
    "Address": "город Москва, улица Академика Варги, дом 34",
    "PublicPhone": [
      {
        "PublicPhone": "(495) 339-77-39"
      }
    ],
    "SeatsCount": 240,
    "SocialPrivileges": "нет",
    "Longitude_WGS84": "37.4777242354090000",
    "Latitude_WGS84": "55.6336438788728000",
    "geoData": {
      "coordinates": [
        37.477724235409,
        55.6336438788728
      ],
      "type": "Point"
    },
    "geodata_center": {
      "coordinates": [
        37.477724235409,
        55.6336438788728
      ],
      "type": "Point"
    }
  },
  {
    "ID": "000027612",
    "Name": "СТОЛОВАЯ ШК. 200",
    "global_id": 637539851,
    "IsNetObject": "нет",
    "OperatingCompany": "",
    "TypeObject": "столовая",
    "AdmArea": "Юго-Западный административный округ",
    "District": "район Ясенево",
    "Address": "город Москва, Голубинская улица, дом 21, корпус 3",
    "PublicPhone": [
      {
        "PublicPhone": "(495) 421-93-00"
      }
    ],
    "SeatsCount": 103,
    "SocialPrivileges": "нет",
    "Longitude_WGS84": "37.5272455747137880",
    "Latitude_WGS84": "55.6017608616090580",
    "geoData": {
      "coordinates": [
        37.5272455747138,
        55.6017608616091
      ],
      "type": "Point"
    },
    "geodata_center": {
      "coordinates": [
        37.5272455747138,
        55.6017608616091
      ],
      "type": "Point"
    }
  },
  {
    "ID": "000029381",
    "Name": "Столовая школы 103",
    "global_id": 637539854,
    "IsNetObject": "нет",
    "OperatingCompany": "",
    "TypeObject": "столовая",
    "AdmArea": "Юго-Западный административный округ",
    "District": "район Коньково",
    "Address": "город Москва, улица Академика Волгина, дом 11",
    "PublicPhone": [
      {
        "PublicPhone": "(495) 336-65-33"
      }
    ],
    "SeatsCount": 240,
    "SocialPrivileges": "нет",
    "Longitude_WGS84": "37.5196342111335500",
    "Latitude_WGS84": "55.6510990554187050",
    "geoData": {
      "coordinates": [
        37.5196342111335,
        55.6510990554187
      ],
      "type": "Point"
    },
    "geodata_center": {
      "coordinates": [
        37.5196342111335,
        55.6510990554187
      ],
      "type": "Point"
    }
  },
  {
    "ID": "000029391",
    "Name": "Буфет ГБОУ «Школа №117»",
    "global_id": 637539855,
    "IsNetObject": "нет",
    "OperatingCompany": "",
    "TypeObject": "столовая",
    "AdmArea": "Юго-Западный административный округ",
    "District": "Ломоносовский район",
    "Address": "город Москва, улица Академика Пилюгина, дом 14А",
    "PublicPhone": [
      {
        "PublicPhone": "(499) 132-13-44"
      }
    ],
    "SeatsCount": 70,
    "SocialPrivileges": "нет",
    "Longitude_WGS84": "37.5342567204547710",
    "Latitude_WGS84": "55.6720117747338530",
    "geoData": {
      "coordinates": [
        37.5342567204548,
        55.6720117747339
      ],
      "type": "Point"
    },
    "geodata_center": {
      "coordinates": [
        37.5342567204548,
        55.6720117747339
      ],
      "type": "Point"
    }
  },
  {
    "ID": "00143752",
    "Name": "Хинкальная Чела",
    "global_id": 637539860,
    "IsNetObject": "нет",
    "OperatingCompany": "",
    "TypeObject": "кафе",
    "AdmArea": "Юго-Западный административный округ",
    "District": "Ломоносовский район",
    "Address": "город Москва, улица Кравченко, дом 12А",
    "PublicPhone": [
      {
        "PublicPhone": "(499) 138-33-11"
      }
    ],
    "SeatsCount": 30,
    "SocialPrivileges": "нет",
    "Longitude_WGS84": "37.5166059999999960",
    "Latitude_WGS84": "55.6776207347353850",
    "geoData": {
      "coordinates": [
        37.516606,
        55.6776207347354
      ],
      "type": "Point"
    },
    "geodata_center": {
      "coordinates": [
        37.516606,
        55.6776207347354
      ],
      "type": "Point"
    }
  },
  {
    "ID": "000027548",
    "Name": "ГБОУ «Технический пожарно-спасательный колледж имени Героя РФ В.М.Максимчука»",
    "global_id": 637539863,
    "IsNetObject": "нет",
    "OperatingCompany": "",
    "TypeObject": "столовая",
    "AdmArea": "Юго-Западный административный округ",
    "District": "район Котловка",
    "Address": "город Москва, Нагорная улица, дом 11, корпус 1",
    "PublicPhone": [
      {
        "PublicPhone": "(916) 822-09-17"
      }
    ],
    "SeatsCount": 240,
    "SocialPrivileges": "нет",
    "Longitude_WGS84": "37.6085107256296420",
    "Latitude_WGS84": "55.6802928352788410",
    "geoData": {
      "coordinates": [
        37.6085107256296,
        55.6802928352788
      ],
      "type": "Point"
    },
    "geodata_center": {
      "coordinates": [
        37.6085107256296,
        55.6802928352788
      ],
      "type": "Point"
    }
  },
  {
    "ID": "000076495",
    "Name": "Поэма",
    "global_id": 637539865,
    "IsNetObject": "нет",
    "OperatingCompany": "",
    "TypeObject": "кафе",
    "AdmArea": "Юго-Западный административный округ",
    "District": "Обручевский район",
    "Address": "город Москва, улица Миклухо-Маклая, дом 10, корпус 3",
    "PublicPhone": [
      {
        "PublicPhone": "(495) 504-87-83"
      }
    ],
    "SeatsCount": 32,
    "SocialPrivileges": "нет",
    "Longitude_WGS84": "37.5032609999999880",
    "Latitude_WGS84": "55.6494907266352850",
    "geoData": {
      "coordinates": [
        37.503261,
        55.6494907266353
      ],
      "type": "Point"
    },
    "geodata_center": {
      "coordinates": [
        37.503261,
        55.6494907266353
      ],
      "type": "Point"
    }
  },
  {
    "ID": "000023903",
    "Name": "Devi",
    "global_id": 637539867,
    "IsNetObject": "нет",
    "OperatingCompany": "",
    "TypeObject": "кафе",
    "AdmArea": "Юго-Западный административный округ",
    "District": "Обручевский район",
    "Address": "город Москва, улица Миклухо-Маклая, дом 21А",
    "PublicPhone": [
      {
        "PublicPhone": "(495) 544-46-40"
      }
    ],
    "SeatsCount": 36,
    "SocialPrivileges": "нет",
    "Longitude_WGS84": "37.5076599232780410",
    "Latitude_WGS84": "55.6515528530483370",
    "geoData": {
      "coordinates": [
        37.507659923278,
        55.6515528530483
      ],
      "type": "Point"
    },
    "geodata_center": {
      "coordinates": [
        37.507659923278,
        55.6515528530483
      ],
      "type": "Point"
    }
  },
  {
    "ID": "000029821",
    "Name": "ПИЩЕБЛОК ПРИ 4-ОМ РОДДОМЕ",
    "global_id": 637539868,
    "IsNetObject": "нет",
    "OperatingCompany": "",
    "TypeObject": "буфет",
    "AdmArea": "Юго-Западный административный округ",
    "District": "Обручевский район",
    "Address": "город Москва, улица Новаторов, дом 3, строение 2",
    "PublicPhone": [
      {
        "PublicPhone": "(495) 936-22-77"
      }
    ],
    "SeatsCount": 30,
    "SocialPrivileges": "нет",
    "Longitude_WGS84": "37.5251720000000050",
    "Latitude_WGS84": "55.6612217300107730",
    "geoData": {
      "coordinates": [
        37.525172,
        55.6612217300108
      ],
      "type": "Point"
    },
    "geodata_center": {
      "coordinates": [
        37.525172,
        55.6612217300108
      ],
      "type": "Point"
    }
  },
  {
    "ID": "000029437",
    "Name": "Столовая школы 1273",
    "global_id": 637539870,
    "IsNetObject": "нет",
    "OperatingCompany": "",
    "TypeObject": "столовая",
    "AdmArea": "Юго-Западный административный округ",
    "District": "район Коньково",
    "Address": "город Москва, улица Академика Капицы, дом 12",
    "PublicPhone": [
      {
        "PublicPhone": "(495) 420-15-00"
      }
    ],
    "SeatsCount": 200,
    "SocialPrivileges": "нет",
    "Longitude_WGS84": "37.5229530692180620",
    "Latitude_WGS84": "55.6292457424051960",
    "geoData": {
      "coordinates": [
        37.5229530692181,
        55.6292457424052
      ],
      "type": "Point"
    },
    "geodata_center": {
      "coordinates": [
        37.5229530692181,
        55.6292457424052
      ],
      "type": "Point"
    }
  },
  {
    "ID": "000029439",
    "Name": "Столовая школы 113",
    "global_id": 637539873,
    "IsNetObject": "нет",
    "OperatingCompany": "",
    "TypeObject": "столовая",
    "AdmArea": "Юго-Западный административный округ",
    "District": "район Коньково",
    "Address": "город Москва, Профсоюзная улица, дом 118Б",
    "PublicPhone": [
      {
        "PublicPhone": "(495) 335-92-77"
      }
    ],
    "SeatsCount": 240,
    "SocialPrivileges": "нет",
    "Longitude_WGS84": "37.5168176257726100",
    "Latitude_WGS84": "55.6378093624486850",
    "geoData": {
      "coordinates": [
        37.5168176257726,
        55.6378093624487
      ],
      "type": "Point"
    },
    "geodata_center": {
      "coordinates": [
        37.5168176257726,
        55.6378093624487
      ],
      "type": "Point"
    }
  },
  {
    "ID": "000027617",
    "Name": "СТОЛОВАЯ ШК. 1020",
    "global_id": 637539879,
    "IsNetObject": "нет",
    "OperatingCompany": "",
    "TypeObject": "столовая",
    "AdmArea": "Юго-Западный административный округ",
    "District": "район Ясенево",
    "Address": "город Москва, Вильнюсская улица, дом 12",
    "PublicPhone": [
      {
        "PublicPhone": "(495) 337-03-73"
      }
    ],
    "SeatsCount": 103,
    "SocialPrivileges": "нет",
    "Longitude_WGS84": "37.5179429444013270",
    "Latitude_WGS84": "55.5994295246513490",
    "geoData": {
      "coordinates": [
        37.5179429444013,
        55.5994295246513
      ],
      "type": "Point"
    },
    "geodata_center": {
      "coordinates": [
        37.5179429444013,
        55.5994295246513
      ],
      "type": "Point"
    }
  },
  {
    "ID": "000029618",
    "Name": "Столовая ГБОУ Школа № 1101 здание 1.3",
    "global_id": 637539881,
    "IsNetObject": "нет",
    "OperatingCompany": "",
    "TypeObject": "столовая",
    "AdmArea": "Юго-Западный административный округ",
    "District": "район Тёплый Стан",
    "Address": "город Москва, улица Тёплый Стан, дом 25А",
    "PublicPhone": [
      {
        "PublicPhone": "(495) 337-83-11"
      }
    ],
    "SeatsCount": 160,
    "SocialPrivileges": "нет",
    "Longitude_WGS84": "37.4818393217153000",
    "Latitude_WGS84": "55.6287573072624000",
    "geoData": {
      "coordinates": [
        37.4818393217153,
        55.6287573072624
      ],
      "type": "Point"
    },
    "geodata_center": {
      "coordinates": [
        37.4818393217153,
        55.6287573072624
      ],
      "type": "Point"
    }
  },
  {
    "ID": "000029442",
    "Name": "Столовая школы 49",
    "global_id": 637539883,
    "IsNetObject": "нет",
    "OperatingCompany": "",
    "TypeObject": "столовая",
    "AdmArea": "Юго-Западный административный округ",
    "District": "район Коньково",
    "Address": "город Москва, улица Генерала Антонова, дом 5А",
    "PublicPhone": [
      {
        "PublicPhone": "(495) 334-12-47"
      }
    ],
    "SeatsCount": 200,
    "SocialPrivileges": "нет",
    "Longitude_WGS84": "37.5355764369231220",
    "Latitude_WGS84": "55.6456826131384470",
    "geoData": {
      "coordinates": [
        37.5355764369231,
        55.6456826131384
      ],
      "type": "Point"
    },
    "geodata_center": {
      "coordinates": [
        37.5355764369231,
        55.6456826131384
      ],
      "type": "Point"
    }
  },
  {
    "ID": "000026308",
    "Name": "Макдоналдс",
    "global_id": 637539886,
    "IsNetObject": "да",
    "OperatingCompany": "Макдоналдс",
    "TypeObject": "кафе",
    "AdmArea": "Юго-Западный административный округ",
    "District": "Обручевский район",
    "Address": "город Москва, Ленинский проспект, дом 111/2",
    "PublicPhone": [
      {
        "PublicPhone": "(495) 935-67-70"
      }
    ],
    "SeatsCount": 150,
    "SocialPrivileges": "нет",
    "Longitude_WGS84": "37.5086201391637960",
    "Latitude_WGS84": "55.6621760289356620",
    "geoData": {
      "coordinates": [
        37.5086201391638,
        55.6621760289357
      ],
      "type": "Point"
    },
    "geodata_center": {
      "coordinates": [
        37.5086201391638,
        55.6621760289357
      ],
      "type": "Point"
    }
  },
  {
    "ID": "000028362",
    "Name": "СТОЛОВАЯ",
    "global_id": 637539887,
    "IsNetObject": "нет",
    "OperatingCompany": "",
    "TypeObject": "столовая",
    "AdmArea": "Юго-Западный административный округ",
    "District": "Академический район",
    "Address": "город Москва, улица Кржижановского, дом 6",
    "PublicPhone": [
      {
        "PublicPhone": "(499) 126-99-08"
      }
    ],
    "SeatsCount": 100,
    "SocialPrivileges": "нет",
    "Longitude_WGS84": "37.5623930000000140",
    "Latitude_WGS84": "55.6823217360910480",
    "geoData": {
      "coordinates": [
        37.562393,
        55.682321736091
      ],
      "type": "Point"
    },
    "geodata_center": {
      "coordinates": [
        37.562393,
        55.682321736091
      ],
      "type": "Point"
    }
  },
  {
    "ID": "000023938",
    "Name": "Ресторан «Тропарево»",
    "global_id": 637539889,
    "IsNetObject": "нет",
    "OperatingCompany": "",
    "TypeObject": "ресторан",
    "AdmArea": "Юго-Западный административный округ",
    "District": "район Тёплый Стан",
    "Address": "город Москва, улица Академика Бакулева, дом 3",
    "PublicPhone": [
      {
        "PublicPhone": "(495) 438-61-97"
      }
    ],
    "SeatsCount": 180,
    "SocialPrivileges": "нет",
    "Longitude_WGS84": "37.4850441864040000",
    "Latitude_WGS84": "55.6408927656877000",
    "geoData": {
      "coordinates": [
        37.485044186404,
        55.6408927656877
      ],
      "type": "Point"
    },
    "geodata_center": {
      "coordinates": [
        37.485044186404,
        55.6408927656877
      ],
      "type": "Point"
    }
  },
  {
    "ID": "000027141",
    "Name": "Il Pittore",
    "global_id": 637539891,
    "IsNetObject": "нет",
    "OperatingCompany": "",
    "TypeObject": "ресторан",
    "AdmArea": "Юго-Западный административный округ",
    "District": "район Черёмушки",
    "Address": "город Москва, Нахимовский проспект, дом 45, строение 1",
    "PublicPhone": [
      {
        "PublicPhone": "(499) 120-43-08"
      }
    ],
    "SeatsCount": 200,
    "SocialPrivileges": "нет",
    "Longitude_WGS84": "37.5703522192071000",
    "Latitude_WGS84": "55.6747331848973000",
    "geoData": {
      "coordinates": [
        37.5703522192071,
        55.6747331848973
      ],
      "type": "Point"
    },
    "geodata_center": {
      "coordinates": [
        37.5703522192071,
        55.6747331848973
      ],
      "type": "Point"
    }
  },
  {
    "ID": "000028527",
    "Name": "ТРАНСПОРТНЫЙ КОМБИНАТ РОССИЯ",
    "global_id": 637539897,
    "IsNetObject": "нет",
    "OperatingCompany": "",
    "TypeObject": "столовая",
    "AdmArea": "Юго-Западный административный округ",
    "District": "Обручевский район",
    "Address": "город Москва, Профсоюзная улица, дом 74",
    "PublicPhone": [
      {
        "PublicPhone": "(495) 330-41-60"
      }
    ],
    "SeatsCount": 35,
    "SocialPrivileges": "нет",
    "Longitude_WGS84": "37.5437858626656790",
    "Latitude_WGS84": "55.6627816636041080",
    "geoData": {
      "coordinates": [
        37.5437858626657,
        55.6627816636041
      ],
      "type": "Point"
    },
    "geodata_center": {
      "coordinates": [
        37.5437858626657,
        55.6627816636041
      ],
      "type": "Point"
    }
  },
  {
    "ID": "00139769",
    "Name": "KFC",
    "global_id": 637539900,
    "IsNetObject": "да",
    "OperatingCompany": "KFC",
    "TypeObject": "предприятие быстрого обслуживания",
    "AdmArea": "Юго-Западный административный округ",
    "District": "район Зюзино",
    "Address": "город Москва, Малая Юшуньская улица, дом 1, корпус 1",
    "PublicPhone": [
      {
        "PublicPhone": "(495) 319-85-31"
      }
    ],
    "SeatsCount": 55,
    "SocialPrivileges": "нет",
    "Longitude_WGS84": "37.5945511145998030",
    "Latitude_WGS84": "55.6532483205868830",
    "geoData": {
      "coordinates": [
        37.5945511145998,
        55.6532483205869
      ],
      "type": "Point"
    },
    "geodata_center": {
      "coordinates": [
        37.5945511145998,
        55.6532483205869
      ],
      "type": "Point"
    }
  },
  {
    "ID": "00139783",
    "Name": "Шаурмания",
    "global_id": 637539902,
    "IsNetObject": "нет",
    "OperatingCompany": "",
    "TypeObject": "предприятие быстрого обслуживания",
    "AdmArea": "Юго-Западный административный округ",
    "District": "район Зюзино",
    "Address": "город Москва, Малая Юшуньская улица, дом 1, корпус 1",
    "PublicPhone": [
      {
        "PublicPhone": "(499) 615-70-47"
      }
    ],
    "SeatsCount": 10,
    "SocialPrivileges": "нет",
    "Longitude_WGS84": "37.5945511145998030",
    "Latitude_WGS84": "55.6532483205868830",
    "geoData": {
      "coordinates": [
        37.5945511145998,
        55.6532483205869
      ],
      "type": "Point"
    },
    "geodata_center": {
      "coordinates": [
        37.5945511145998,
        55.6532483205869
      ],
      "type": "Point"
    }
  },
  {
    "ID": "00107458",
    "Name": "Макдоналдс",
    "global_id": 637539903,
    "IsNetObject": "да",
    "OperatingCompany": "Макдоналдс",
    "TypeObject": "предприятие быстрого обслуживания",
    "AdmArea": "Юго-Западный административный округ",
    "District": "район Зюзино",
    "Address": "город Москва, Малая Юшуньская улица, дом 1, корпус 1",
    "PublicPhone": [
      {
        "PublicPhone": "(495) 755-66-00"
      }
    ],
    "SeatsCount": 159,
    "SocialPrivileges": "нет",
    "Longitude_WGS84": "37.5944448784190260",
    "Latitude_WGS84": "55.6530592290289050",
    "geoData": {
      "coordinates": [
        37.594444878419,
        55.6530592290289
      ],
      "type": "Point"
    },
    "geodata_center": {
      "coordinates": [
        37.594444878419,
        55.6530592290289
      ],
      "type": "Point"
    }
  },
  {
    "ID": "000024619",
    "Name": "Кафе «Небеса»",
    "global_id": 637539914,
    "IsNetObject": "нет",
    "OperatingCompany": "",
    "TypeObject": "кафе",
    "AdmArea": "Юго-Западный административный округ",
    "District": "район Тёплый Стан",
    "Address": "город Москва, Профсоюзная улица, дом 126, корпус 1",
    "PublicPhone": [
      {
        "PublicPhone": "(926) 702-13-25"
      }
    ],
    "SeatsCount": 42,
    "SocialPrivileges": "нет",
    "Longitude_WGS84": "37.5185824066153660",
    "Latitude_WGS84": "55.6326059452676560",
    "geoData": {
      "coordinates": [
        37.5185824066154,
        55.6326059452677
      ],
      "type": "Point"
    },
    "geodata_center": {
      "coordinates": [
        37.5185824066154,
        55.6326059452677
      ],
      "type": "Point"
    }
  },
  {
    "ID": "00143510",
    "Name": "Кафе «Cezve Coffee»",
    "global_id": 637539925,
    "IsNetObject": "нет",
    "OperatingCompany": "",
    "TypeObject": "кафе",
    "AdmArea": "Юго-Западный административный округ",
    "District": "район Тёплый Стан",
    "Address": "город Москва, Профсоюзная улица, дом 126, корпус 3",
    "PublicPhone": [
      {
        "PublicPhone": "(495) 420-22-77"
      }
    ],
    "SeatsCount": 8,
    "SocialPrivileges": "нет",
    "Longitude_WGS84": "37.5168103296353270",
    "Latitude_WGS84": "55.6302199425540780",
    "geoData": {
      "coordinates": [
        37.5168103296353,
        55.6302199425541
      ],
      "type": "Point"
    },
    "geodata_center": {
      "coordinates": [
        37.5168103296353,
        55.6302199425541
      ],
      "type": "Point"
    }
  },
  {
    "ID": "00143013",
    "Name": "Ресторан «Китайские новости»",
    "global_id": 637539927,
    "IsNetObject": "нет",
    "OperatingCompany": "",
    "TypeObject": "ресторан",
    "AdmArea": "Юго-Западный административный округ",
    "District": "район Тёплый Стан",
    "Address": "город Москва, Профсоюзная улица, дом 126, корпус 3",
    "PublicPhone": [
      {
        "PublicPhone": "(495) 968-37-21"
      }
    ],
    "SeatsCount": 190,
    "SocialPrivileges": "нет",
    "Longitude_WGS84": "37.5168103296353270",
    "Latitude_WGS84": "55.6302199425540780",
    "geoData": {
      "coordinates": [
        37.5168103296353,
        55.6302199425541
      ],
      "type": "Point"
    },
    "geodata_center": {
      "coordinates": [
        37.5168103296353,
        55.6302199425541
      ],
      "type": "Point"
    }
  },
  {
    "ID": "000029063",
    "Name": "СТОЛОВАЯ ШК. 1280",
    "global_id": 637539928,
    "IsNetObject": "нет",
    "OperatingCompany": "",
    "TypeObject": "столовая",
    "AdmArea": "Юго-Западный административный округ",
    "District": "Академический район",
    "Address": "город Москва, улица Кржижановского, дом 30",
    "PublicPhone": [
      {
        "PublicPhone": "(499) 129-78-55"
      }
    ],
    "SeatsCount": 200,
    "SocialPrivileges": "нет",
    "Longitude_WGS84": "37.5791892633670060",
    "Latitude_WGS84": "55.6751778008517420",
    "geoData": {
      "coordinates": [
        37.579189263367,
        55.6751778008517
      ],
      "type": "Point"
    },
    "geodata_center": {
      "coordinates": [
        37.579189263367,
        55.6751778008517
      ],
      "type": "Point"
    }
  },
  {
    "ID": "000029073",
    "Name": "СТОЛОВАЯ 16 ПРИ РУДН",
    "global_id": 637539932,
    "IsNetObject": "нет",
    "OperatingCompany": "",
    "TypeObject": "столовая",
    "AdmArea": "Юго-Западный административный округ",
    "District": "Обручевский район",
    "Address": "город Москва, улица Миклухо-Маклая, дом 6",
    "PublicPhone": [
      {
        "PublicPhone": "(495) 434-26-00"
      }
    ],
    "SeatsCount": 644,
    "SocialPrivileges": "нет",
    "Longitude_WGS84": "37.4992683704721940",
    "Latitude_WGS84": "55.6520591054831540",
    "geoData": {
      "coordinates": [
        37.4992683704722,
        55.6520591054832
      ],
      "type": "Point"
    },
    "geodata_center": {
      "coordinates": [
        37.4992683704722,
        55.6520591054832
      ],
      "type": "Point"
    }
  },
  {
    "ID": "000023908",
    "Name": "Кабул",
    "global_id": 637539935,
    "IsNetObject": "нет",
    "OperatingCompany": "",
    "TypeObject": "кафе",
    "AdmArea": "Юго-Западный административный округ",
    "District": "Обручевский район",
    "Address": "город Москва, улица Миклухо-Маклая, дом 6",
    "PublicPhone": [
      {
        "PublicPhone": "(915) 022-99-24"
      }
    ],
    "SeatsCount": 48,
    "SocialPrivileges": "нет",
    "Longitude_WGS84": "37.4992683704721940",
    "Latitude_WGS84": "55.6520591054831540",
    "geoData": {
      "coordinates": [
        37.4992683704722,
        55.6520591054832
      ],
      "type": "Point"
    },
    "geodata_center": {
      "coordinates": [
        37.4992683704722,
        55.6520591054832
      ],
      "type": "Point"
    }
  },
  {
    "ID": "00114450",
    "Name": "Папа Джонс",
    "global_id": 637539938,
    "IsNetObject": "да",
    "OperatingCompany": "Папа Джонс",
    "TypeObject": "предприятие быстрого обслуживания",
    "AdmArea": "Юго-Западный административный округ",
    "District": "район Котловка",
    "Address": "город Москва, Севастопольский проспект, дом 15, корпус 3",
    "PublicPhone": [
      {
        "PublicPhone": "(495) 663-98-51"
      }
    ],
    "SeatsCount": 0,
    "SocialPrivileges": "нет",
    "Longitude_WGS84": "37.5987090837458810",
    "Latitude_WGS84": "55.6817911412893810",
    "geoData": {
      "coordinates": [
        37.5987090837459,
        55.6817911412894
      ],
      "type": "Point"
    },
    "geodata_center": {
      "coordinates": [
        37.5987090837459,
        55.6817911412894
      ],
      "type": "Point"
    }
  },
  {
    "ID": "00156891",
    "Name": "Чудо Пекарня Шаргунь",
    "global_id": 637539939,
    "IsNetObject": "нет",
    "OperatingCompany": "",
    "TypeObject": "закусочная",
    "AdmArea": "Юго-Западный административный округ",
    "District": "район Котловка",
    "Address": "город Москва, Севастопольский проспект, дом 15, корпус 3",
    "PublicPhone": [
      {
        "PublicPhone": "(968) 711-10-63"
      }
    ],
    "SeatsCount": 0,
    "SocialPrivileges": "нет",
    "Longitude_WGS84": "37.5987053251297070",
    "Latitude_WGS84": "55.6817945129891920",
    "geoData": {
      "coordinates": [
        37.5987053251297,
        55.6817945129892
      ],
      "type": "Point"
    },
    "geodata_center": {
      "coordinates": [
        37.5987053251297,
        55.6817945129892
      ],
      "type": "Point"
    }
  },